시군명,인허가일자,사업장명,인허가취소일자,통합영업상태명,영업상태명,폐업일자,휴업시작일자,휴업종료일자,재개업일자,소재지시설전화번호,소재지면적,소재지도로명주소,소재지지번주소,소재지우편번호,위도,경도,업태구분명정보,X좌표값,Y좌표값,위생업태명,건물지상층수,건물지하층수,사용시작지상층수,사용끝지상층수,사용시작지하층수,사용끝지하층수,한실수,양실수,욕실수,발한실여부,의자수,조건부허가신고사유,조건부허가시작일자,조건부허가종료일자,건물소유구분명,세탁기수,여성종사자수,남성종사자수,회수건조수,침대수,다중이용업소여부
가평군,20100127,119세탁소,,영업/정상,영업,,,,,031 581 7119,130.00,"경기도 가평군 가평읍 가화로 146, 1층","경기도 가평군 가평읍 읍내리 267-3번지 , 1층 ",12412,37.8324301,127.5120743,일반세탁업,245017.229061592    ,481226.542170276    ,일반세탁업,1,0,1,1,,,0,0,0,N,0,,,,임대,2,,,1,0,N
가평군,20060321,가평 운동화빨래방,,폐업,폐업,20080421,,,,031 5818292,25.84,경기도 가평군 가평읍 보납로6번길 15 (읍내리),경기도 가평군 가평읍 읍내리 489-1번지 ,12418,37.8298193,127.5116361,일반세탁업,244979.463711947    ,480935.787859226    ,일반세탁업,3,,1,1,,,,,,N,,,,,임대,,,,,,N
가평군,19940325,가평빨래방,,폐업,폐업,20181205,,,,031 5811188,31.32,경기도 가평군 가평읍 오리나무길 31,경기도 가평군 가평읍 대곡리 164-1번지 ,12420,37.8246554,127.5140767,일반세탁업,245197.174825396    ,480364.304650058    ,일반세탁업,,,,,,,,,,N,,,,,,,,,,,N
가평군,20010725,뉴세탁나라,,영업/정상,영업,,,,,031 5853117,43.20,경기도 가평군 조종면 연인산로 20-5,경기도 가평군 조종면 현리 253-3번지 ,12437,37.8218966979,127.3517000679,빨래방업,230902.264941251    ,479993.016957666    ,빨래방업,,,,1,,,,,,N,,,,,,,,,,,N
가평군,20160304,더라운드리(The Laundry),,영업/정상,영업,,,,,031 580 3351,157.51,경기도 가평군 설악면 유명로 1007-90,경기도 가평군 설악면 방일리 715번지 외 19필지 ,12472,37.6264489,127.4835018,일반세탁업,242267.012860969    ,458305.019719165    ,일반세탁업,0,0,0,0,1,1,0,0,0,N,0,,,,,7,0,0,1,0,N
가평군,19870509,만백사,,폐업,폐업,20200214,,,,031 582 7500,14.40,경기도 가평군 가평읍 보납로 22,경기도 가평군 가평읍 읍내리 467-4번지 ,12418,37.8307330136,127.5128578079,일반세탁업,245084.808580906    ,481040.652561191    ,일반세탁업,,,,,,,,,,N,,,,,,,,,,,N
가평군,19930201,미광세탁소,,영업/정상,영업,,,,,031582 4115,49.54,경기도 가평군 가평읍 굴다리길 11,경기도 가평군 가평읍 대곡리 240-1번지 ,12420,37.8258468,127.5135738,일반세탁업,245152.401645465    ,480497.207012433    ,일반세탁업,,,,,,,,,,N,,,,,,,,,,,N
가평군,19920917,미진사,,폐업,폐업,20191030,,,,031 584 8490,35.05,경기도 가평군 청평면 청평중앙로72번길 23,경기도 가평군 청평면 청평리 357-18번지 ,12452,37.7375516392,127.4230596495,일반세탁업,237226.611218928    ,470658.234094634    ,일반세탁업,3,,1,1,,,,,,N,,,,,,,,,,,N
가평군,19870919,미진사 1,,폐업,폐업,20090302,,,,,30.74,경기도 가평군 청평면 잠곡로 15 (청평리),경기도 가평군 청평면 청평리 413-14번지 ,12452,37.7369666,127.4203449,일반세탁업,236986.289300211    ,470589.465040366    ,일반세탁업,,,,,,,,,,N,,,,,,,,,,,N
가평군,19920907,믿음사세탁소,,영업/정상,영업,,,,,031 5844656,31.99,경기도 가평군 청평면 시장중앙로 4,경기도 가평군 청평면 청평리 438-19번지 ,12453,37.7357743,127.4160954,일반세탁업,236613.382467535    ,470456.877753153    ,일반세탁업,,,,1,,,,,,N,,,,,,,,,,,N
가평군,20001101,백광세탁빨래방,,영업/정상,영업,,,,,031 5825972,82.50,경기도 가평군 가평읍 달전로 45,경기도 가평군 가평읍 달전리 338-2번지 ,12422,37.8143748,127.5184121,일반세탁업,245584.623322355    ,479226.609846914    ,일반세탁업,,,,,,,,,,N,,,,,,,,,,,N
가평군,19981106,백양사,,영업/정상,영업,,,,,031 5856611,16.90,경기도 가평군 설악면 신천중앙로 127,경기도 가평군 설악면 신천리 453-4번지 ,12467,37.6778949,127.4898300,일반세탁업,243147.146396659    ,464064.809887219    ,일반세탁업,,,,1,,,,,,N,,,,,,,,,,,N
가평군,19990824,빨래랜드,,폐업,폐업,20031013,,,,031 5859493,.00,경기도 가평군 조종면 조종새싹로 14 (현리),경기도 가평군 조종면 현리 274-16번지 ,12437,37.8200676,127.3486817,일반세탁업,230635.448662081    ,479788.090387107    ,일반세탁업,,,,,,,,,,N,,,,,,,,,,,N
가평군,19941109,성수세탁소,,폐업,폐업,20030519,,,,031 5822126,28.00,경기도 가평군 가평읍 가화로 110-1 (읍내리),경기도 가평군 가평읍 읍내리 474-3번지 ,12419,37.8295651,127.5141560,일반세탁업,245200.884087078    ,480909.688181051    ,일반세탁업,,,,,,,,,,N,,,,,,,,,,,N
가평군,19920312,세탁나라,,폐업,폐업,20201125,,,,031 5817776,27.25,경기도 가평군 가평읍 가화로 103-1,경기도 가평군 가평읍 읍내리 476-9 ,12418,37.8289498427,127.5137839871,일반세탁업,245161.409382566    ,480835.976978994    ,일반세탁업,,,,,,,,,,N,,,,,,,,,,,N
가평군,20110929,손빨래방,,영업/정상,영업,,,,,031 5812499,6.84,경기도 가평군 가평읍 보납로 35 ([한국통신 2층 직원휴게실내]),경기도 가평군 가평읍 읍내리 426-10번지 [한국통신 2층 직원휴게실내] ,12412,37.8313480,127.5143841,세탁업 기타,245220.480850135    ,481107.59347227     ,세탁업 기타,3,1,2,2,,,0,0,0,N,0,,,,임대,2,,,0,0,N
가평군,19930511,시민세탁소,,영업/정상,영업,,,,,,17.59,경기도 가평군 가평읍 연인2길 22,경기도 가평군 가평읍 읍내리 492-16번지 ,12418,37.8297313,127.5111584,일반세탁업,244946.240750803    ,480931.661013929    ,일반세탁업,,,,,,,,,,N,,,,,,,,,,,N
가평군,20180510,시민코인빨래방,,폐업,폐업,20191108,,,,,24.00,경기도 가평군 가평읍 연인2길 22,경기도 가평군 가평읍 읍내리 489-3번지 ,12418,37.8297313135,127.5111584495,빨래방업,244936.163288125    ,480928.775371157    ,빨래방업,1,0,1,1,0,0,0,0,0,N,0,,,,자가,2,1,0,0,0,N
가평군,19920603,신영세탁소,,폐업,폐업,20040224,,,,,21.35,경기도 가평군 가평읍 오리나무길 15 (대곡리),경기도 가평군 가평읍 대곡리 239-1번지 ,12420,37.8261502,127.5142460,일반세탁업,245211.479558265    ,480530.78182836     ,일반세탁업,,,,,,,,,,N,,,,,,,,,,,N
가평군,20210308,신진세탁기업,,영업/정상,영업,,,,,,495.00,"경기도 가평군 가평읍 태봉두밀로 2-29, 1층","경기도 가평군 가평읍 상색리 169-14 ,1층 ",12426,37.8035507117,127.4863571133,일반세탁업,242744.827598991    ,477997.300086114    ,일반세탁업,1,1,1,1,,,0,0,0,N,0,,,,,2,0,0,0,0,N
가평군,19940509,에이스크리닝,,영업/정상,영업,,,,,031 5825070,25.08,경기도 가평군 가평읍 보납로 10,경기도 가평군 가평읍 읍내리 495-3번지 ,12418,37.8309823,127.5114396,일반세탁업,244959.66503747     ,481064.779234986    ,일반세탁업,,,,,,,,,,N,,,,,,,,,,,N
가평군,19980407,인정세탁소,,영업/정상,영업,,,,,031 5817090,37.80,경기도 가평군 청평면 경춘로 1458,경기도 가평군 청평면 상천리 258번지 ,12449,37.7792350,127.4648859,일반세탁업,240892.200448761    ,475301.56596154     ,일반세탁업,0,0,0,1,0,0,0,0,0,N,0,,,,,0,,,0,0,N
가평군,19870515,제일세탁소,,폐업,폐업,20190904,,,,031 5850217,14.28,,경기도 가평군 조종면 현리 264번지 ,12437,,,일반세탁업,,,일반세탁업,,,,1,,,,,,N,,,,,,,,,,,N
가평군,19930727,조은사세탁소,,폐업,폐업,20190225,,,,031 5850207,19.27,경기도 가평군 조종면 현창로38번길 20,경기도 가평군 조종면 현리 262-45번지 ,12437,37.8197055,127.3492933,일반세탁업,230691.284598611    ,479748.827467473    ,일반세탁업,,,,1,,,,,,N,,,,,,,,,,,N
가평군,19940527,조은세탁소,,폐업,폐업,20100827,,,,031 5827559,.00,,경기도 가평군 가평읍 읍내리 613-1번지 ,12414,37.8330635,127.5093524,일반세탁업,244775.161409714    ,481295.722446835    ,일반세탁업,,,,,,,,,,N,,,,,,,,,,,N
가평군,19870518,조종세탁소,,영업/정상,영업,,,,,031 5852401,15.20,,경기도 가평군 조종면 현리 264번지 ,12437,,,일반세탁업,,,일반세탁업,,,,1,,,,,,N,,,,,,,,,,,N
가평군,20111021,좋은세탁소,,폐업,폐업,20131008,,,,031 5855947,21.00,경기도 가평군 청평면 시장중앙로 7-37,경기도 가평군 청평면 청평리 79-3번지 ,12453,37.7347405,127.4180068,일반세탁업,236781.577955588    ,470344.625199018    ,일반세탁업,2,0,1,1,,,0,0,0,N,0,,,,임대,1,,,1,0,N
가평군,20080220,중앙빨래방,,폐업,폐업,20100317,,,,,27.75,경기도 가평군 가평읍 석봉로 134 (읍내리),경기도 가평군 가평읍 읍내리 332-4번지 ,12418,37.8269803,127.5118892,일반세탁업,245002.259751128    ,480621.175309679    ,일반세탁업,2,0,1,1,,,0,0,0,,0,,,,임대,3,,,,,N
가평군,19940502,중앙세탁소,,폐업,폐업,20070315,,,,031 5827422,27.75,경기도 가평군 가평읍 석봉로 134 (읍내리),경기도 가평군 가평읍 읍내리 332-4번지 ,12418,37.8269803,127.5118892,일반세탁업,245002.259751128    ,480621.175309679    ,일반세탁업,,,,,,,,,,N,,,,,,,,,,,N
가평군,19990804,청구컴퓨터크리링,,영업/정상,영업,,,,,031 5853936,46.80,경기도 가평군 청평면 경춘로 807-18 (청구아파트상가 303호),경기도 가평군 청평면 청평리 470-13번지 청구아파트상가 303호 ,12451,37.7384368,127.4173127,일반세탁업,236737.586196265    ,470680.107776233    ,일반세탁업,,,,1,,,,,,N,,,,,,,,,,,N
가평군,20040709,청마을세탁,,폐업,폐업,20210719,,,,031 5854045,21.00,경기도 가평군 청평면 청평중앙로 52 (외2필지),경기도 가평군 청평면 청평리 432-10 외2필지 ,,37.7377689283,127.4202246795,일반세탁업,236973.844222934    ,470681.78812466     ,일반세탁업,3,0,1,0,0,0,0,0,0,N,0,,,,임대,0,0,0,0,0,N
가평군,20020731,청용세탁소,,영업/정상,영업,,,,,031 5845072,52.52,"경기도 가평군 설악면 신천중앙로 126-7, 나동 1층",경기도 가평군 설악면 신천리 450-3번지 나동 1층 ,12465,37.6782200,127.4896394,일반세탁업,243129.965466657    ,464101.747227756    ,일반세탁업,1,,1,1,,,,,,N,,,,,,,,,,,N
가평군,20180104,크린토피아(가평점),,폐업,폐업,20191108,,,,,53.23,"경기도 가평군 가평읍 석봉로 207-1, 101호",경기도 가평군 가평읍 읍내리 615번지 101호,12414,37.8333169628,127.5090815630,일반세탁업,244750.442425203    ,481322.812849582    ,일반세탁업,2,0,1,1,0,0,0,0,0,N,0,,,,자가,3,1,0,0,0,N
가평군,20090507,하우스크리닝,,폐업,폐업,20101122,,,,,26.10,경기도 가평군 조종면 조종새싹로 48 (현리),경기도 가평군 조종면 현리 231-1번지 ,12437,37.8229496,127.3490359,일반세탁업,230665.827331505    ,480108.28511492     ,일반세탁업,1,0,,,,,0,0,0,N,0,,,,임대,4,,,1,0,N
가평군,19920603,하이크리닝,,폐업,폐업,20071122,,,,031 5820098,35.25,경기도 가평군 가평읍 굴다리길 2 (대곡리),경기도 가평군 가평읍 대곡리 232-1번지 ,12420,37.8262106,127.5148598,일반세탁업,245263.585171417    ,480536.077150398    ,일반세탁업,,,,,,,,,,N,,,,,,,,,,,N
가평군,20080123,한마음세탁마을,,영업/정상,영업,,,,,031 582 5556,36.72,"경기도 가평군 가평읍 석봉로 209, 104동 (외1필지 준수상가)",경기도 가평군 가평읍 읍내리 637-6번지 외1필지 준수상가 104동 ,12414,37.8337309,127.5091866,일반세탁업,244761.403866509    ,481369.982042247    ,일반세탁업,1,0,1,1,0,0,0,0,0,N,0,,,,임대,2,,,,,N
가평군,19981116,현대세탁,,영업/정상,영업,,,,,031 5811031,24.75,경기도 가평군 가평읍 가화로 143,경기도 가평군 가평읍 읍내리 618-5번지 ,12413,37.8321517,127.5118793,일반세탁업,244998.350432937    ,481195.145791372    ,일반세탁업,,,,,,,,,,N,,,,,,,,,,,N
가평군,20120614,현대세탁소,,폐업,폐업,20160831,,,,031 585 6006,17.86,경기도 가평군 청평면 강변나루로40번길 40,경기도 가평군 청평면 청평리 631-13번지 ,12454,37.7316366,127.4141780,일반세탁업,236446.363577397    ,469996.185033391    ,일반세탁업,4,0,1,1,,,0,0,0,N,0,,,,임대,1,,,1,0,N
가평군,19920603,혜림세탁소,,폐업,폐업,20040316,,,,,24.79,경기도 가평군 가평읍 굴다리길 11 (대곡리),경기도 가평군 가평읍 대곡리 240-1번지 ,12420,37.8258468,127.5135738,일반세탁업,245152.401645465    ,480497.207012433    ,일반세탁업,,,,,,,,,,N,,,,,,,,,,,N
가평군,19870518,희망세탁소,,영업/정상,영업,,,,,031 584 1589,16.50,경기도 가평군 청평면 청평중앙로 18,경기도 가평군 청평면 청평리 434-37번지 ,12453,37.7361319,127.4168915,일반세탁업,236684.587869139    ,470496.96732362     ,일반세탁업,,,,1,,,,,,N,,,,,,,,,,,N
고양시,20060605,(사) 지장협 재활 자립장 ,,폐업,폐업,20180314,,,,031 9220292,223.80,"경기도 고양시 일산서구 송산로174번길 13-1 (구산동,외 1필지 (1층))",경기도 고양시 일산서구 구산동 627-15번지 외 1필지 (1층) ,10202,37.6829606,126.6994944,일반세탁업,173427.998065524    ,464557.094092947    ,일반세탁업,2,1,1,1,0,0,0,0,0,N,0,,,,임대,3,,,0,0,N
고양시,20080619,(주)뉴덕흥기업,,영업/정상,영업,,,,,031 9640898,"1,431.00",경기도 고양시 일산동구 공릉천로 126 (사리현동),경기도 고양시 일산동구 사리현동 267-4번지 ,10261,37.7033484,126.8471209,일반세탁업,186453.762980586    ,466789.029523255    ,일반세탁업,0,0,0,0,0,0,0,0,0,N,0,,,,,8,,,,,N
고양시,20200824,(주)시니어파트너스,,영업/정상,영업,,,,,,132.00,"경기도 고양시 덕양구 통일로 140, 삼송테크노밸리 A동 2층 239호 (동산동)",경기도 고양시 덕양구 동산동 376 삼송테크노밸리 A동 239호,10594,37.6490702916,126.9019008596,일반세탁업,191287.508236468    ,460746.546568849    ,일반세탁업,2,0,0,0,0,0,0,0,0,N,0,,,,,4,0,0,8,0,N
고양시,20141023,(주)춘파,,폐업,폐업,20161206,,,,,85.98,"경기도 고양시 일산동구 공릉천로 88, 1층 전부호 (사리현동)",경기도 고양시 일산동구 사리현동 188-19번지 1층 전부호 ,10261,37.7007890,126.8466500,일반세탁업,186411.635752264    ,466505.404708829    ,일반세탁업,2,0,1,1,,,0,0,0,N,0,,,,,1,0,0,0,0,N
고양시,20021119,119운동화박사,,폐업,폐업,20161020,,,,031 9750388,33.00,"경기도 고양시 일산서구 원일로 85-1 (일산동,번지)",경기도 고양시 일산서구 일산동 594-18번지 번지 ,10342,37.6859892,126.7716530,일반세탁업,179793.494392912    ,464876.260145384    ,일반세탁업,0,0,0,0,0,0,0,0,0,N,0,,,,,0,,,0,0,N
고양시,20161019,119운동화빨래방,,폐업,폐업,20191108,,,,031 968 4991,40.52,"경기도 고양시 덕양구 통일로802번길 82, 1(일부)층 (관산동)",경기도 고양시 덕양구 관산동 1009번지 외1필지 1층일부 ,10286,37.6909019828,126.8655027380,빨래방업,188073.09120446     ,465405.798805279    ,빨래방업,0,0,,,,,0,0,0,N,0,,,,,2,0,0,0,0,N
고양시,19970604,21세기세탁소,,폐업,폐업,20180704,,,,031 9625696,26.95,"경기도 고양시 덕양구 동헌로 398-12, 202호 (고양동, 윤창APT 상가동)",경기도 고양시 덕양구 고양동 415-1번지 윤창APT 상가동 202호,10273,37.7060691,126.8953103,일반세탁업,190703.499087693    ,467085.818554621    ,일반세탁업,,,,,,,,,,N,,,,,,,,,,,N
고양시,20070112,24시간무인빨래방셀피아,,폐업,폐업,20141106,,,,031 9143653,30.07,"경기도 고양시 일산서구 현중로36번길 31 (탄현동,성호프라자 103호)",경기도 고양시 일산서구 탄현동 1490번지 성호프라자 103호 ,10244,37.6944001,126.7695974,일반세탁업,179614.830872438    ,465810.436078604    ,일반세탁업,3,1,1,1,,,,,,N,,,,,임대,3,,,,,N
고양시,19960713,8단지한마음세탁소,,영업/정상,영업,,,,,031 9778497,20.34,"경기도 고양시 일산동구 탄중로 398, 중산마을상가동 109호 (중산동)",경기도 고양시 일산동구 중산동 1574번지 중산마을상가동 109호,10333,37.6890190,126.7824369,일반세탁업,180681.679281685    ,465208.398948262    ,일반세탁업,0,0,0,0,0,0,0,0,0,N,0,,,,,0,,,1,0,N
고양시,19990714,AToZ크리닝,,폐업,폐업,20060208,,,,031 9146088,95.16,경기도 고양시 일산서구 후곡로 32 번지 후곡마을4단지 상가동 지1호 (일산동),경기도 고양시 일산서구 일산동 1066번지 번지 후곡마을4단지 상가동 지1호 ,10374,37.6797700,126.7658230,일반세탁업,179278.778672832    ,464187.034822545    ,일반세탁업,0,0,0,,0,,0,0,0,N,0,,,,,,,,,,N
고양시,19940118,VIP 세탁소,,폐업,폐업,20060428,,,,031 9723663,34.96,경기도 고양시 덕양구 지도로125번길 9-10 (토당동),경기도 고양시 덕양구 토당동 834-6번지 ,10507,37.6275506,126.8222328,일반세탁업,184241.859547859    ,458379.55041254     ,일반세탁업,,,,,,,,,,N,,,,,,,,,,,N
고양시,20120307,e-편한세탁소,,영업/정상,영업,,,,,031 965 1006,32.30,"경기도 고양시 덕양구 호국로 859 (성사동, 원당 e편한세상 상가 나동 101호)",경기도 고양시 덕양구 성사동 869 원당 e편한세상 상가 나동 101호 ,10294,37.6613970694,126.8403966598,일반세탁업,185784.217497976    ,462086.921242864    ,일반세탁업,1,0,1,1,,,0,0,0,N,0,,,,임대,3,,,0,0,N
고양시,19870612,가람세탁,,영업/정상,영업,,,,,031 974 0073,22.05,경기도 고양시 덕양구 행신로 287-1 (행신동),경기도 고양시 덕양구 행신동 235-5 ,10492,37.6209077737,126.8449699148,일반세탁업,186243.208594174    ,457628.797152609    ,일반세탁업,,,,,,,,,,N,,,,,,,,,,,N
고양시,20070914,가좌세탁소,,영업/정상,영업,,,,,031 925 7171,21.50,"경기도 고양시 일산서구 가좌1로 8 (가좌동, 가좌마을5단지상가 지하101호)",경기도 고양시 일산서구 가좌동 1087 가좌마을5단지상가 지하101호 ,10211,37.6908516786,126.7219955870,일반세탁업,175290.560384174    ,465441.156548809    ,일반세탁업,3,1,0,0,1,1,0,0,0,,0,,,,자가,2,,,,,N
고양시,20030226,갑두세탁소,,폐업,폐업,20090209,,,,031 9736662,50.00,경기도 고양시 덕양구 용현로53번길 16-3 (행신동),경기도 고양시 덕양구 행신동 741-15번지 ,10525,37.6177485,126.8347384,일반세탁업,185343.505          ,457289.36           ,일반세탁업,,,,,,,,,,N,,,,,,,,,,,N
고양시,19940520,강선세탁소,,폐업,폐업,20161020,,,,031 9120047,18.90,"경기도 고양시 일산서구 강선로 67, 201호 (주엽동, 강선마을7단지 상가동)",경기도 고양시 일산서구 주엽동 65번지 강선마을7단지 상가동 201호,10388,37.6710441,126.7635951,일반세탁업,179079.448172157    ,463218.47960706     ,일반세탁업,0,0,0,0,0,0,0,0,0,N,0,,,,,0,,,0,0,N
고양시,19970313,강촌세탁소,,영업/정상,영업,,,,,031 9062080,19.63,"경기도 고양시 일산동구 강석로 110, 분산상가동 104호 (마두동, 강촌마을)",경기도 고양시 일산동구 마두동 789번지 강촌마을 분산상가동 104호,10415,37.6511039,126.7810759,일반세탁업,180616.226680491    ,461000.693889075    ,일반세탁업,0,0,0,0,0,0,0,0,0,N,0,,,,,0,,,1,0,N
고양시,19980226,개미세탁,,폐업,폐업,19990720,,,,031 9215576,25.50,,경기도 고양시 일산서구 일산동 1244-3번지 번지 ,,,,일반세탁업,,,일반세탁업,0,0,0,,0,,0,0,0,N,0,,,,,,,,,,N
고양시,20051020,건영 세탁소,,영업/정상,영업,,,,,031 9159115,19.61,"경기도 고양시 일산서구 홀트로 57, 102호 (탄현동, 탄현마을4단지 상가동)",경기도 고양시 일산서구 탄현동 1481번지 탄현마을4단지 상가동 102호,10240,37.6952656,126.7698781,일반세탁업,179638.718967962    ,465905.275568017    ,일반세탁업,3,1,1,1,,,,,,N,,,,,임대,,,,,,N
고양시,20040107,건영세탁,,영업/정상,영업,,,,,031 9258808,25.11,"경기도 고양시 일산서구 원일로21번길 22 (일산동, 휴먼빌1차아파트 상가동 2층일부(204호))",경기도 고양시 일산서구 일산동 1655 휴먼빌1차아파트 상가동 2층일부(204호) ,10348,37.6874910872,126.7672271928,일반세탁업,179304.349538261    ,465078.344030254    ,일반세탁업,2,,2,,,,,,,N,,,,,임대,,,,,,N
고양시,20091209,건영세탁,,폐업,폐업,20200724,,,,031 914 7520,27.69,"경기도 고양시 일산서구 일산로636번길 49 (대화동,1층 일부)",경기도 고양시 일산서구 대화동 2012-5 1층 일부 ,10369,37.6838666807,126.7598344200,일반세탁업,178747.568817743    ,464633.098944044    ,일반세탁업,3,1,1,1,,,0,0,0,N,0,,,,임대,1,,,1,,N
고양시,19960719,건영세탁,,폐업,폐업,20030429,,,,031 9736803,27.00,"경기도 고양시 덕양구 화신로 295 상가 202호 (화정동,별빛마을10단지아파트)",경기도 고양시 덕양구 화정동 951번지 별빛마을 건영상가 202호 ,10502,37.6298842,126.8282312,일반세탁업,184772.223964782    ,458638.976326253    ,일반세탁업,,,,,,,,,,N,,,,,,,,,,,N
고양시,19971224,건영세탁,,폐업,폐업,20130729,,,,031 9797167,20.80,,경기도 고양시 덕양구 행신동 958번지 ,10492,37.6213618,126.8415153,일반세탁업,185943.868126251    ,457688.920197164    ,일반세탁업,,,,,,,,,,N,,,,,,,,,,,N
고양시,19950629,건영세탁소,,폐업,폐업,20050804,,,,031 9147520,26.88,경기도 고양시 일산서구 일산로636번길 49 (대화동),경기도 고양시 일산서구 대화동 2012-5번지 번지 ,10369,37.6837670,126.7597905,일반세탁업,178747.568817743    ,464633.098944044    ,일반세탁업,0,0,0,,0,,0,0,0,N,0,,,,,,,,,,N
고양시,20010904,건영세탁소,,폐업,폐업,20020518,,,,031 9159115,20.80,"경기도 고양시 일산서구 홀트로 57 상가 102호 (탄현동,탄현마을4단지아파트)",경기도 고양시 일산서구 탄현동 1481번지 번지 탄현마을상가 102호 ,10240,37.6952656,126.7698781,일반세탁업,179638.718967962    ,465905.275568017    ,일반세탁업,0,0,0,,0,,0,0,0,N,0,,,,,,,,,,N
고양시,20030429,건영세탁소,,영업/정상,영업,,,,,031 9736803,27.82,경기도 고양시 덕양구 화신로 295,경기도 고양시 덕양구 화정동 951 별빛마을 건영상가동 202호 ,10502,37.6310001406,126.8284823148,일반세탁업,184772.223964782    ,458638.976326253    ,일반세탁업,2,1,2,2,0,0,0,0,0,N,0,,,,,0,,,0,0,N
고양시,20030527,건영세탁소,,영업/정상,영업,,,,,031 917 6090,31.40,"경기도 고양시 일산서구 일산로 806, 108호 (대화동, 장성마을3단지 상가동)",경기도 고양시 일산서구 대화동 2234 장성마을3단지 상가동 108호,10382,37.6723920181,126.7468854681,일반세탁업,177527.638517505    ,463374.527149077    ,일반세탁업,1,1,0,1,0,0,0,0,0,N,0,,,,임대,2,,,,,N
고양시,20090219,건영세탁소,,폐업,폐업,20161020,,,,031 916 8482,23.01,"경기도 고양시 일산서구 현중로 71 (탄현동, 탄현마을5단지상가동 지03호)",경기도 고양시 일산서구 탄현동 1477번지 탄현마을5단지상가동 지03호 ,10243,37.6960149,126.7661227,일반세탁업,179310.163694209    ,465988.692772442    ,일반세탁업,2,1,0,0,1,1,0,0,0,N,0,,,,임대,2,,,1,0,N
고양시,19950619,건영세탁소,,폐업,폐업,19970925,,,,031 9118604,20.36,경기도 고양시 일산동구 대산로11번길 95 번지 (정발산동),경기도 고양시 일산동구 정발산동 719번지 번지 ,10362,37.6661314,126.7714086,일반세탁업,179765.657544269    ,462670.841738081    ,일반세탁업,0,0,0,,0,,0,0,0,N,0,,,,,,,,,,N
고양시,20010820,건영세탁소,,폐업,폐업,20071218,,,,031 9168482,24.00,"경기도 고양시 일산서구 현중로 71 상가 지하 3호 (탄현동,탄현마을5단지아파트)",경기도 고양시 일산서구 탄현동 1477번지 번지 탄현상가지하3호 ,10243,37.6960149,126.7661227,일반세탁업,179310.163694209    ,465988.692772442    ,일반세탁업,0,0,0,,0,,0,0,0,N,0,,,,,,,,,,N
고양시,19980122,건영세탁소,,영업/정상,영업,,,,,031 9118604,22.12,경기도 고양시 일산동구 무궁화로75번길 32 (정발산동),경기도 고양시 일산동구 정발산동 718-6번지 ,10362,37.6664096,126.7708524,일반세탁업,179717.027858614    ,462703.645426031    ,일반세탁업,0,0,0,0,0,0,0,0,0,N,0,,,,,0,,,1,0,N
고양시,19960621,건영세탁소,,영업/정상,영업,,,,,031 9150281,22.37,"경기도 고양시 일산서구 강선로 167, 205호 (일산동, 후곡마을15단지 상가동)",경기도 고양시 일산서구 일산동 1077 후곡마을15단지 상가동 205호,10374,37.6780096850,126.7702122188,일반세탁업,179556.58346521     ,464033.720563269    ,일반세탁업,,,,,,,,,,N,,,,,,,,,,,N
고양시,20161108,경기산업크리닝,,영업/정상,영업,,,,,,192.00,"경기도 고양시 덕양구 내유길 106, 1층 (내유동, 가동)",경기도 고양시 덕양구 내유동 62-10번지 가동 1층 ,10264,37.7217620581,126.8597518702,일반세탁업,187572.341371699    ,468830.016733362    ,일반세탁업,0,0,,,,,0,0,0,N,0,,,,,3,0,0,3,0,N
고양시,19970304,경남동신세탁소,,영업/정상,영업,,,,,031 9766872,25.34,"경기도 고양시 일산동구 탄중로 426, 상가동 B102호 (중산동, 중산마을)",경기도 고양시 일산동구 중산동 1566번지 중산마을 상가동 B102호,10337,37.6885967,126.7782319,일반세탁업,180374.093926973    ,465163.657746474    ,일반세탁업,0,0,0,0,0,0,0,0,0,N,0,,,,,0,,,1,0,N
고양시,19941229,경남세탁소,,영업/정상,영업,,,,,031 9150959,27.61,"경기도 고양시 일산서구 강선로 118, 207호 (주엽동, 강선마을2단지 상가동)",경기도 고양시 일산서구 주엽동 38 강선마을2단지 상가동 207호,10360,37.6738955023,126.7680866525,일반세탁업,179556.402670135    ,463478.685357136    ,일반세탁업,,,,,,,,,,N,,,,,,,,,,,N
고양시,19890303,경진컴퓨터크리닝,,폐업,폐업,20071008,,,,031 9639407,24.50,경기도 고양시 덕양구 마상로154번길 14 (성사동),경기도 고양시 덕양구 성사동 500-19번지 ,10463,37.6580997,126.8388406,일반세탁업,185716.216880659    ,461768.194312962    ,일반세탁업,,,,,,,,,,N,,,,,,,,,,,N
고양시,19950726,경희세탁소,,폐업,폐업,19970317,,,,031 9141973,22.50,경기도 고양시 일산서구 킨텍스로 412 번지 후곡마을7단지 상가2층201호 (일산동),경기도 고양시 일산서구 일산동 1055번지 번지 후곡마을7단지 상가2층201호 ,10371,37.6798209,126.7598827,일반세탁업,178752.162260088    ,464195.517321536    ,일반세탁업,0,0,0,,0,,0,0,0,N,0,,,,,,,,,,N
고양시,20080319,고운세탁소,,영업/정상,영업,,,,,031 9062442,22.42,"경기도 고양시 일산동구 노루목로 78, 102호 (장항동, 호수마을 분산상가 )",경기도 고양시 일산동구 장항동 877번지 호수마을 분산상가 102호,10423,37.6469678,126.7759892,일반세탁업,180165.18688489     ,460545.130881322    ,일반세탁업,0,0,0,0,0,0,0,0,0,N,0,,,,,0,,,1,0,N
고양시,20081028,고운세탁소,,폐업,폐업,20150601,,,,031 9068266,23.80,"경기도 고양시 일산동구 산두로 79 (마두동,1층일부)",경기도 고양시 일산동구 마두동 827-1번지 1층일부 ,10407,37.6651258,126.7875171,일반세탁업,181187.275316153    ,462558.769607019    ,일반세탁업,0,0,0,0,0,0,0,0,0,N,0,,,,,2,,,1,0,N
고양시,20020302,관산세탁소,,폐업,폐업,20090206,,,,031 9693060,25.00,경기도 고양시 덕양구 통일로 1009 (관산동),경기도 고양시 덕양구 관산동 691-2번지 ,10262,37.7057119,126.8565054,일반세탁업,187282.645988757    ,467050.95965245     ,일반세탁업,,,,,,,,,,N,,,,,,,,,,,N
고양시,19921224,광명사세탁소,,영업/정상,영업,,,,,031 9639905,22.40,경기도 고양시 덕양구 혜음로 29-12 (고양동),경기도 고양시 덕양구 고양동 233-15 ,10275,37.7034438751,126.9012146435,일반세탁업,191219.447808058    ,466782.738666568    ,일반세탁업,,,,,,,,,,N,,,,,,,,,,,N
고양시,19870612,광명세탁소,,영업/정상,영업,,,,,031 9629184,13.50,경기도 고양시 덕양구 혜음로 186 (고양동),경기도 고양시 덕양구 고양동 955 ,10271,37.7170352548,126.9011052689,일반세탁업,191209.846506161    ,468293.280845307    ,일반세탁업,,,,,,,,,,N,,,,,,,,,,,N
고양시,19870612,광미세탁소,,폐업,폐업,20081010,,,,031 9628064,28.00,,경기도 고양시 덕양구 관산동 178번지 ,10285,,,일반세탁업,,,일반세탁업,,,,,,,,,,N,,,,,,,,,,,N
고양시,20001208,광야신발세탁소,,폐업,폐업,20080731,,,,031 9161441,23.10,,경기도 고양시 일산서구 주엽동 86번지 번지 강선동문상가 2층5호 ,10365,37.6658483,126.7649379,일반세탁업,179194.932978708    ,462641.382597597    ,일반세탁업,0,0,0,,0,,0,0,0,N,0,,,,,,,,,,N
고양시,19870612,국제세탁소,,폐업,폐업,20150210,,,,031 9644442,30.10,경기도 고양시 덕양구 호국로812번길 113 (성사동),경기도 고양시 덕양구 성사동 419-8번지 ,10465,37.6552950,126.8434250,일반세탁업,186117.862065872    ,461456.128815581    ,일반세탁업,,,,,,,,,,N,,,,,,,,,,,N
고양시,19951021,국제한진세탁소,,영업/정상,영업,,,,,031 9036647,42.00,"경기도 고양시 일산동구 백석로 24, 204호 (백석동, 흰돌마을상가)",경기도 고양시 일산동구 백석동 1349번지 흰돌마을상가 204호 ,10448,37.6434142,126.7835688,일반세탁업,180833.220814427    ,460147.376280537    ,일반세탁업,3,1,2,2,0,0,0,0,0,N,0,,,,자가,0,,,1,0,N
고양시,20090105,굿모닝 세탁소,,영업/정상,영업,,,,,031 938 6909,28.52,"경기도 고양시 덕양구 행신로143번길 28-34 (행신동, 신영상가 1층 103호)",경기도 고양시 덕양구 행신동 620-2 신영상가 1층 103호 ,10517,37.6201349201,126.8325120757,일반세탁업,185143.3130136      ,457545.679191145    ,일반세탁업,3,1,1,1,,,0,0,0,N,0,,,,임대,3,,,,,N
고양시,20050810,굿모닝세탁소,,폐업,폐업,20100326,,,,031 9049663,34.68,경기도 고양시 일산동구 강송로87번길 12 (백석동),경기도 고양시 일산동구 백석동 1252-7번지 25통5반 ,10446,37.6470719,126.7882944,일반세탁업,181251.119445744    ,460553.93435822     ,일반세탁업,3,1,1,1,0,0,0,0,0,N,0,,,,임대,0,,,1,0,N
고양시,20040824,굿모닝크린,,영업/정상,영업,,,,,031 8130072,60.04,"경기도 고양시 일산동구 경의로 25-37 (백석동,동문굿모닝힐II 201동 102,103호)","경기도 고양시 일산동구 백석동 1319번지 동문굿모닝힐II 201동 102,103호 ",10449,37.6392693,126.7881809,일반세탁업,181238.740920801    ,459687.72367358     ,일반세탁업,10,4,1,1,0,0,0,0,0,N,0,,,,,0,,,1,0,N
고양시,20080118,그린 월드,,영업/정상,영업,,,,,031 9029392,43.93,경기도 고양시 일산동구 산두로 67 (마두동),경기도 고양시 일산동구 마두동 890-3번지 ,10407,37.6641539,126.7880979,일반세탁업,181238.095078327    ,462450.610186065    ,일반세탁업,0,0,0,0,0,0,0,0,0,N,0,,,,,0,,,1,0,N
고양시,19950915,그린드라이크리닝,,영업/정상,영업,,,,,031 9133219,39.27,경기도 고양시 일산동구 산두로 233 (정발산동),경기도 고양시 일산동구 정발산동 1118-1번지 ,10357,37.6760196,126.7784626,일반세탁업,180390.79           ,463769.17           ,일반세탁업,0,0,0,0,0,0,0,0,0,N,0,,,,,0,,,1,0,N
고양시,20130419,그린세탁,,영업/정상,영업,,,,,,177.00,"경기도 고양시 일산서구 덕산로243번길 58-22 (덕이동, B동 1층전체)",경기도 고양시 일산서구 덕이동 1241-8번지 B동 1층전체 ,10206,37.6979556,126.7302520,일반세탁업,176147.881404246    ,466216.93242633     ,일반세탁업,1,0,1,1,,,0,0,0,N,0,,,,,2,,,0,0,N
고양시,19960120,그린세탁소,,폐업,폐업,20191025,,,,031 9740433,22.60,"경기도 고양시 덕양구 용현로 10 (행신동,무원마을 쌍용한진상가동 1층116호)",경기도 고양시 덕양구 행신동 767번지 무원마을 쌍용한진상가동 1층116호 ,10527,37.6134455312,126.8373191618,일반세탁업,185571.38521644     ,456812.864264444    ,일반세탁업,0,0,0,0,0,0,0,0,0,N,0,,,,,0,,,0,0,N
고양시,19970303,그린세탁소,,폐업,폐업,20050817,,,,031 9755825,43.75,경기도 고양시 일산동구 탄중로 416 번지 중산마을상가동 B01호 (중산동),경기도 고양시 일산동구 중산동 1566-2번지 번지 중산마을상가동 B01호 ,10337,37.6887076,126.7797055,일반세탁업,180505.26863607     ,465177.670123154    ,일반세탁업,0,0,0,,0,,0,0,0,N,0,,,,,,,,,,N
고양시,20030814,그린세탁소,,폐업,폐업,20050510,,,,,40.28,경기도 고양시 덕양구 지도로125번길 23-16 1층 (토당동),경기도 고양시 덕양구 토당동 835-3번지 1층 ,10507,37.6271084,126.8217581,일반세탁업,184201.540989672    ,458331.879371132    ,일반세탁업,4,1,1,1,,,,,,N,,,,,임대,,,,,,N
고양시,19960201,그린세탁소,,폐업,폐업,20210204,,,,031 9138265,34.00,"경기도 고양시 일산서구 대산로 103, 108호 (주엽동, 강선마을6단지 상가동)",경기도 고양시 일산서구 주엽동 50 강선마을6단지 상가동 108호,10388,37.6734652716,126.7655735018,일반세탁업,179227.553391196    ,463386.24593229     ,일반세탁업,,,,,,,,,,N,,,,,,,,,,,N
고양시,20041110,그린세탁소,,영업/정상,영업,,,,,031 9235823,17.39,"경기도 고양시 일산서구 고양대로 685 (일산동,현대홈타운1차단지상가동107호)",경기도 고양시 일산서구 일산동 645 현대홈타운1차단지상가동107호 ,10341,37.6847952127,126.7729016648,일반세탁업,179904.027220848    ,464704.610500164    ,일반세탁업,1,,1,1,,,,,,N,,,,,임대,,,,,,N
고양시,19970711,그린전자크리닝,,폐업,폐업,20091228,,,,031 9175878,20.80,경기도 고양시 일산서구 대화로398번길 8-8 번지 (대화동),경기도 고양시 일산서구 대화동 2085번지 번지 ,10367,37.6826783,126.7518812,일반세탁업,178049.17923522     ,464512.502516838    ,일반세탁업,,,,,,,,,,N,,,,,,,,,,,N
고양시,20060227,그린파워세탁소,,폐업,폐업,20200722,,,,031 9706364,10.50,"경기도 고양시 덕양구 화신로 309, 별빛마을9단지 115호 (화정동)",경기도 고양시 덕양구 화정동 948 별빛마을9단지 ,10502,37.6315670814,126.8267432333,일반세탁업,184518.097306059    ,458669.863237957    ,일반세탁업,3,0,1,1,0,0,0,0,0,N,0,,,,임대,0,,,0,0,N
고양시,19951122,그린파워세탁소,,폐업,폐업,20060216,,,,031 9706364,19.62,,경기도 고양시 덕양구 화정동 948번지 1층 ,10502,37.6301591,126.8253418,일반세탁업,184518.097306059    ,458669.863237957    ,일반세탁업,,,,,,,,,,N,,,,,,,,,,,N
고양시,20050831,그린향기세탁,,폐업,폐업,20180625,,,,031 975 5825,18.72,"경기도 고양시 일산동구 탄중로 416, 106호 (중산동, 중산마을9단지상가동)",경기도 고양시 일산동구 중산동 1566-2번지 중산마을9단지 상가동 106호 ,10337,37.6887076,126.7797055,일반세탁업,180505.26863607     ,465177.670123154    ,일반세탁업,1,1,1,1,0,0,0,0,0,N,0,,,,임대,1,,,1,0,N
고양시,20110812,그린향세탁전문점,,폐업,폐업,20120720,,,,031 962 6001,34.56,"경기도 고양시 일산동구 은행마을로 95, 1층 일부호 (식사동)",경기도 고양시 일산동구 식사동 857번지 외1필지 1층 일부호,10304,37.6712940,126.8061562,일반세탁업,182832.84675969     ,463238.903651684    ,일반세탁업,3,0,1,1,,,0,0,0,N,0,,,,임대,3,,,1,0,N
고양시,20050525,그린힐,,폐업,폐업,20120507,,,,031 9650112,49.88,경기도 고양시 덕양구 마상로63번길 22 (주교동),경기도 고양시 덕양구 주교동 305 - 3번지 ,10297,37.6628825,126.8315087,일반세탁업,,,일반세탁업,5,1,1,1,,,,,,N,,,,,임대,,,,,,N
고양시,20040226,금강세탁,,폐업,폐업,20081209,,,,03109381116,26.00,"경기도 고양시 덕양구 마상로113번길 20 101호 (주교동,스윗닷홈)",경기도 고양시 덕양구 주교동 577번지 스윗닷홈 101호 ,10298,37.6611599,126.8365899,일반세탁업,185517.615354771    ,462106.652150538    ,일반세탁업,5,,1,1,,,,,,N,6,,,,,,,,,,N
고양시,20061121,금성사,,폐업,폐업,20190318,,,,031 9647763,37.80,"경기도 고양시 덕양구 고양대로1407번길 69 외1필지  가동 102호 (성사동,종건빌라)",경기도 고양시 덕양구 성사동 488 -40번지 외1필지 종건그린빌라 가동 102호,10465,37.6570408,126.8419027,일반세탁업,,,일반세탁업,3,,1,1,,,,,,N,,,,,임대,,,,,,N
고양시,20080331,금성세탁,,폐업,폐업,20081231,,,,031 9754081,50.50,"경기도 고양시 일산동구 중산로 103 201호 (중산동,거풍프라자)",경기도 고양시 일산동구 중산동 1691번지 거풍프라자 201호 ,10355,37.6811597,126.7808730,일반세탁업,180605.602012172    ,464337.773567078    ,일반세탁업,0,0,0,0,0,0,0,0,0,N,0,,,,,0,,,1,0,N
고양시,20131016,금호한양세탁소,,영업/정상,영업,,,,,031 903 7349,28.05,"경기도 고양시 일산동구 일산로 206-1, 102호 (마두동, 백마마을 상가동)",경기도 고양시 일산동구 마두동 732번지 백마마을 상가동 102호,10417,37.6551050683,126.7913536984,일반세탁업,181522.772013729    ,461443.688437066    ,일반세탁업,0,0,,,,,0,0,0,N,0,,,,임대,2,,,0,0,N
고양시,19980629,금호한양세탁소,,폐업,폐업,20131016,,,,031 9037349,42.95,"경기도 고양시 일산동구 일산로 206-1, 상가동 205호 (마두동, 백마마을)",경기도 고양시 일산동구 마두동 732번지 백마마을 상가동 205호,10417,37.6551050,126.7913536,일반세탁업,181522.772013729    ,461443.688437066    ,일반세탁업,0,0,0,0,0,0,0,0,0,N,0,,,,,0,,,1,0,N
고양시,20030724,기쁨세탁소,,폐업,폐업,20180917,,,,031 9117577,17.55,"경기도 고양시 일산동구 산두로229번길 39 (정발산동,(1층 일부))",경기도 고양시 일산동구 정발산동 1131번지 (1층 일부) ,10357,37.6743521,126.7780709,일반세탁업,180357.347403952    ,463583.007917416    ,일반세탁업,3,1,0,1,0,0,0,0,0,N,0,,,,임대,0,,,1,0,N
고양시,20031210,기쁨세탁소,,폐업,폐업,20200511,,,,031 9076227,32.00,"경기도 고양시 일산동구 산두로229번길 39, 1층 일부호 (정발산동)",경기도 고양시 일산동구 정발산동 1131번지 ,10357,37.6744350231,126.7781169751,일반세탁업,180357.347403952    ,463583.007917416    ,일반세탁업,3,0,1,0,0,0,0,0,0,N,0,,,,임대,0,,,1,0,N
고양시,19950930,기산세탁소,,폐업,폐업,20190201,,,,031 9709141,24.14,"경기도 고양시 덕양구 무원로 37 상가동 2층 203호 (행신동,무원마을9단지아파트)",경기도 고양시 덕양구 행신동 697번지 무원마을 상가동 2층203호 ,10521,37.6161128,126.8313442,일반세탁업,185045.477541056    ,457109.567041926    ,일반세탁업,,,,,,,,,,N,,,,,,,,,,,N
고양시,19890626,김실로암,,폐업,폐업,19991203,,,,031 9764014,19.20,경기도 고양시 일산서구 탄중로471번길 36 (일산동),경기도 고양시 일산서구 일산동 592-50번지 번지 ,10342,37.6865954,126.7729889,일반세탁업,179912.5590794      ,464942.764797886    ,일반세탁업,0,0,0,,0,,0,0,0,N,0,,,,,,,,,,N
고양시,19960516,까치세탁소,,영업/정상,영업,,,,,031 9773024,31.14,"경기도 고양시 일산동구 중산로 254, 208호 (중산동, 중산마을상가동 )",경기도 고양시 일산동구 중산동 1554-2번지 중산마을상가동 208호 ,10331,37.6944873,126.7821032,일반세탁업,180716.386753243    ,465816.183210241    ,일반세탁업,0,0,0,0,0,0,0,0,0,N,0,,,,,0,,,1,0,N
고양시,20130306,깔끄미 세탁소,,폐업,폐업,20151110,,,,031 967 7675,43.20,"경기도 고양시 덕양구 고양대로1315번길 86-31, 1층 (주교동)",경기도 고양시 덕양구 주교동 596-15번지 1층 ,10460,37.6591074,126.8315060,일반세탁업,185068.638335598    ,461881.924748641    ,일반세탁업,2,1,12,,,,0,0,0,N,0,,,,임대,2,,,1,0,N
고양시,19960223,깔끄미세탁빨래방,,폐업,폐업,20160801,,,,031 9672216,21.34,경기도 고양시 덕양구 고양대로1395번길 76-1 (성사동),경기도 고양시 덕양구 성사동 488-24번지 ,10465,37.6568511,126.8415065,일반세탁업,185950.409523866    ,461630.532958264    ,일반세탁업,,,,,,,,,,N,,,,,,,,,,,N
고양시,20050817,깔끔이 세탁소,,영업/정상,영업,,,,,031 9325556,28.80,"경기도 고양시 일산동구 고풍로 72-11, 102호 (풍동,성원아파트 상가동)",경기도 고양시 일산동구 풍동 551-1번지 성원아파트 상가동 102호,10307,37.6655977,126.7944294,일반세탁업,181798.10277627     ,462607.815920072    ,일반세탁업,2,1,1,1,0,0,0,0,0,N,0,,,,임대,1,,,1,0,N
고양시,20091120,깔끔이네,,폐업,폐업,20160125,,,,,199.36,경기도 고양시 덕양구 내유길 7 (내유동),경기도 고양시 덕양구 내유동 444-21번지 ,10264,37.7183710,126.8498909,일반세탁업,186701.021663377    ,468454.979372612    ,일반세탁업,0,0,,,,,0,0,0,N,0,,,,,1,,,0,0,N
고양시,20011025,깨끗한생활,,폐업,폐업,20080110,,,,031 9150440,26.40,"경기도 고양시 일산서구 일산로 593 103호 (일산동,번지빌딩)",경기도 고양시 일산서구 일산동 1054번지 번지B/D103호 ,10371,37.6796280,126.7624566,일반세탁업,178980.116967768    ,464170.938788925    ,일반세탁업,0,0,0,,0,,0,0,0,N,0,,,,,,,,,,N
고양시,20011017,깨끗한세상,,영업/정상,영업,,,,,031 963 3677,58.50,경기도 고양시 덕양구 통일로759번길 32 (관산동),경기도 고양시 덕양구 관산동 193-1 ,10287,37.6859415509,126.8652894012,일반세탁업,188049.097813567    ,464844.280131397    ,일반세탁업,,,,,,,,,,N,,,,,,,,,,,N
고양시,20090930,나드리세탁소,,영업/정상,영업,,,,,031 923 2242,63.57,"경기도 고양시 일산동구 호수로 336 (백석동,브라운스톤125호,126호)","경기도 고양시 일산동구 백석동 1330번지 브라운스톤125호,126호 ",10449,37.6374395,126.7877330,일반세탁업,181199.730502486    ,459483.063667204    ,일반세탁업,15,3,1,1,0,0,0,0,0,N,0,,,,임대,2,,,1,,N
고양시,20170901,나래세탁소,,영업/정상,영업,,,,,031 966 9158,30.00,"경기도 고양시 덕양구 고양대로1384번길 19-15, 114호 (성사동, 성사동새롬프라자)",경기도 고양시 덕양구 성사동 722-5번지 외2필지 성사동새롬프라자 114호,10468,37.6531342,126.8379789,일반세탁업,185621.765471121    ,461222.311820169    ,일반세탁업,0,0,1,1,,,0,0,0,N,0,,,,,1,0,0,1,0,N
고양시,20040831,나래세탁소,,폐업,폐업,20170320,,,,031 9669158,46.40,"경기도 고양시 덕양구 고양대로1384번길 19-15 114호 (성사동,새롬프라자)",경기도 고양시 덕양구 성사동 722-5번지 새롬프라쟈 114호 ,10468,37.6531880,126.8377862,일반세탁업,,,일반세탁업,5,,1,1,,,,,,N,,,,,임대,,,,,,N
고양시,20150113,내유명품세탁소,,영업/정상,영업,,,,,031 969 8933,37.84,"경기도 고양시 덕양구 내유길 38-13, 나동 1(일부)층 (내유동)",경기도 고양시 덕양구 내유동 273번지 1(일부)층 나동 ,10264,37.7190428,126.8538706,일반세탁업,187051.945977699    ,468528.44020624     ,일반세탁업,0,0,1,1,0,0,0,0,0,N,0,,,,,1,0,0,1,0,N
고양시,20091224,내유세탁소,,영업/정상,영업,,,,,964 1070,45.60,"경기도 고양시 덕양구 유산길 23 (내유동,1층 일부)",경기도 고양시 덕양구 내유동 663-7번지 1층 일부 ,10263,37.7263475,126.8453146,일반세탁업,186298.826285524    ,469340.993870601    ,일반세탁업,0,0,,,,,0,0,0,N,0,,,,,1,,,1,0,N
고양시,19990129,노블레스크리닝,,영업/정상,영업,,,,,031 932 6020,31.50,"경기도 고양시 일산동구 정발산로42번길 24 (장항동,신성하이네스트오피스텔 102호)",경기도 고양시 일산동구 장항동 854번지 신성하이네스트오피스텔 102호 ,10403,37.6560992,126.7737403,일반세탁업,179969.159036721    ,461557.899939656    ,일반세탁업,0,0,0,0,0,0,0,0,0,N,0,,,,,0,,,1,0,N
고양시,20031204,뉴그린세탁소,,폐업,폐업,20040930,,,,9241120,30.70,경기도 고양시 일산서구 일산로741번길 5-10 1층 일부 (대화동),경기도 고양시 일산서구 대화동 2193-1번지 (1층일부) ,10377,37.6772984,126.7513779,일반세탁업,178002.556723029    ,463914.42912717     ,일반세탁업,,,1,1,,,,,,N,,,,,임대,,,,,,N
고양시,20051011,뉴그린파워세탁소,,폐업,폐업,20061127,,,,031 9797045,26.00,"경기도 고양시 덕양구 화신로 170 1층 102호 (행신동,햇빛마을21단지아파트)",경기도 고양시 덕양구 행신동 905번지 햋빛마을 1층102호 ,10484,37.6272731,126.8421482,일반세탁업,185999.78049263     ,458346.129266608    ,일반세탁업,2,,1,1,,,,,,N,,,,,임대,,,,,,N
고양시,19970224,뉴삼익세탁소,,영업/정상,영업,,,,,031 9129234,40.53,"경기도 고양시 일산서구 주엽로 124, 202호 (주엽동, 문촌마을16단지 상가동)",경기도 고양시 일산서구 주엽동 117 문촌마을16단지 상가동 202호,10385,37.6699085175,126.7574898389,일반세탁업,178643.823160002    ,462992.928417695    ,일반세탁업,0,0,0,,0,,0,0,0,N,0,,,,,,,,,,N
고양시,19950729,뉴프로 세탁소,,폐업,폐업,20080731,,,,031 9135331,15.40,"경기도 고양시 일산서구 대산로 102 상가동 2층 209호 (주엽동,강선마을1단지아파트)",경기도 고양시 일산서구 주엽동 36번지 번지 강선마을상가동 제2층 209호 ,10375,37.6744102,126.7663274,일반세탁업,179319.227381561    ,463590.388585795    ,일반세탁업,0,0,0,,0,,0,0,0,N,0,,,,,,,,,,N
고양시,19951024,뉴현대크리닝,,폐업,폐업,20030415,,,,,.00,경기도 고양시 일산동구 산두로 67 (마두동),경기도 고양시 일산동구 마두동 890-3번지 ,10407,37.6641539,126.7880979,일반세탁업,181238.095078327    ,462450.610186065    ,일반세탁업,,,,,,,,,,N,,,,,,,,,,,N
고양시,19951024,뉴현대크리닝,,폐업,폐업,20030415,,,,,.00,경기도 고양시 일산동구 산두로 67 (마두동),경기도 고양시 일산동구 마두동 890-3번지 ,10407,37.6641539,126.7880979,일반세탁업,181238.095078327    ,462450.610186065    ,일반세탁업,,,,,,,,,,N,,,,,,,,,,,N
고양시,20080630,늘조은세탁소,,영업/정상,영업,,,,,031 974 7890,34.32,"경기도 고양시 덕양구 충장로 118-31 (행신동,원스톱라이프상가 104호)",경기도 고양시 덕양구 행신동 996-5 원스톱라이프상가 104호 ,10518,37.6224936188,126.8352106247,일반세탁업,185383.46           ,457805.775          ,일반세탁업,7,1,1,1,,,0,0,0,,0,,,,임대,3,,,,,N
고양시,19930611,능곡톱빨래방,,폐업,폐업,20090209,,,,031 9743790,24.42,"경기도 고양시 덕양구 지도로35번길 7 9호 (토당동,요현상가)",경기도 고양시 덕양구 토당동 863-3번지 요현상가 9호 ,10510,37.6201651,126.8238704,일반세탁업,184385.36391577     ,457561.184806851    ,일반세탁업,,,,,,,,,,N,,,,,,,,,,,N
고양시,20040728,다모아세탁소,,영업/정상,영업,,,,,031 9138244,21.60,"경기도 고양시 일산서구 탄현로 95, 101호 (탄현동, 탄현마을10단지 상가동)",경기도 고양시 일산서구 탄현동 1470 탄현마을10단지 상가동 101호,10239,37.6998707142,126.7679561159,일반세탁업,179389.969137628    ,466424.933968       ,일반세탁업,2,1,1,1,,,,,,N,,,,,자가,,,,,,N
고양시,20120822,닥터크리닝,,폐업,폐업,20130717,,,,031 969 5369,41.93,"경기도 고양시 일산동구 위시티4로 80, 상가1동 204호 일부호 (식사동, 위시티일산자이1단지)",경기도 고양시 일산동구 식사동 1487번지 위시티일산자이1단지 상가1동 204호 일부호,10321,37.6834395,126.8119625,일반세탁업,183533.12192800000  ,464993.44686100000  ,일반세탁업,2,1,2,2,0,0,0,0,0,N,0,,,,,3,,,1,0,N
고양시,20040921,닥터크린,,영업/정상,영업,,,,,031 965 7786,26.00,"경기도 고양시 덕양구 백양로 138-1 (화정동, 1층일부)",경기도 고양시 덕양구 화정동 877-19 1층일부 ,10478,37.6380864395,126.8351737194,일반세탁업,185383.387810121    ,459536.517689884    ,일반세탁업,3,0,1,1,0,0,0,0,0,N,0,,,,임대,0,,,0,0,N
고양시,20180320,닥터크린랜드,,영업/정상,영업,,,,,031 968 9681,418.00,"경기도 고양시 일산동구 숲속마을로 207, 1층 전체호 (식사동)",경기도 고양시 일산동구 식사동 1068 ,10303,37.6721685481,126.8044235524,일반세탁업,182677.089555389    ,463324.286945474    ,일반세탁업,0,0,,,,,0,0,0,N,0,,,,,3,0,0,3,0,N
고양시,20200715,닥터클리닝,,영업/정상,영업,,,,,,139.20,"경기도 고양시 덕양구 통일로1170번길 174, 1층 전체호 (내유동)",경기도 고양시 덕양구 내유동 205-2 ,10264,37.7231863356,126.8557237682,일반세탁업,187208.109346212    ,468977.900683269    ,일반세탁업,0,0,0,0,0,0,0,0,0,N,0,,,,,1,0,0,1,0,N
고양시,19960625,달빛크리닝,,폐업,폐업,20111018,,,,031 9665272,22.72,,경기도 고양시 덕양구 화정동 858번지 달빛마을1상가 111호 ,10472,37.6467741,126.8321462,일반세탁업,185122.470133336    ,460512.022207547    ,일반세탁업,3,,1,1,,,,,,N,,,,,,,,,,,N
고양시,20120228,대광세탁소,,영업/정상,영업,,,,,,22.40,"경기도 고양시 덕양구 동헌로23번길 24 (관산동, (1층))",경기도 고양시 덕양구 관산동 538-3번지 (1층) ,10266,37.7058164,126.8608711,일반세탁업,187666.307319063    ,467061.50727482     ,일반세탁업,2,1,1,1,,,0,0,0,N,0,,,,임대,1,,,0,0,N
고양시,20090713,대륙세탁,,영업/정상,영업,,,,,031 964 9159,198.00,"경기도 고양시 덕양구 고골길116번길 14-45 (관산동,나동)",경기도 고양시 덕양구 관산동 561-2 나동 ,10265,37.7115219401,126.8637778939,세탁업 기타,187921.863664537    ,467694.777139474    ,세탁업 기타,1,0,1,1,0,0,0,0,0,N,0,,,,,3,,,0,0,N
고양시,20200717,대륭산업,,영업/정상,영업,,,,,031 911 0927,198.00,"경기도 고양시 일산동구 마골길 93, 가동 전체호 (성석동)",경기도 고양시 일산동구 성석동 563 가동 전체 ,10312,37.7063514417,126.8021869673,세탁업 기타,182477.477043092    ,467111.990035667    ,세탁업 기타,0,0,0,0,0,0,0,0,0,N,0,,,,,4,0,0,2,0,N
고양시,19931124,대림세탁,,폐업,폐업,20210729,,,,031 9031483,32.90,"경기도 고양시 일산동구 일산로 153, 상가동 204호 (백석동, 백마마을)",경기도 고양시 일산동구 백석동 1186 백송마을 상가동 204호,10419,37.6503363748,126.7919535474,일반세탁업,181473.848619963    ,460955.26130898     ,일반세탁업,0,0,0,0,0,0,0,0,0,N,0,,,,,0,0,0,1,0,N
고양시,19971118,대림세탁소,,영업/정상,영업,,,,,031 9381588,28.48,경기도 고양시 덕양구 토당로 123 (토당동),경기도 고양시 덕양구 토당동 259 ,10506,37.6262667994,126.8156966318,일반세탁업,183728.249427925    ,458259.507833892    ,일반세탁업,,,,,,,,,,N,,,,,,,,,,,N
고양시,20041130,대림세탁소,,폐업,폐업,20150326,,,,031 9222552,18.80,"경기도 고양시 일산동구 고봉로278번길 17 (중산동, 산들마을2단지 상가동 107호)",경기도 고양시 일산동구 중산동 1651번지 산들마을2단지 상가동 107호 ,10338,37.6837619,126.7800150,일반세탁업,180529.610768313    ,464626.388065265    ,일반세탁업,2,1,1,1,0,0,0,0,0,N,0,,,,자가,0,,,1,0,N
고양시,20100831,대림세탁소,,폐업,폐업,20110217,,,,031 962 0576,20.15,경기도 고양시 덕양구 호국로 859 원당e편한세상 상가 가동103호 일부 (성사동),경기도 고양시 덕양구 성사동 869번지 원당e편한세상 상가 가동103호 일부 ,10294,37.6609659,126.8396163,일반세탁업,185784.217497976    ,462086.921242864    ,일반세탁업,0,0,1,,,,0,0,0,N,0,,,,,1,,,1,0,N
고양시,20030124,대림세탁소,,폐업,폐업,20060602,,,,031 9222552,41.28,"경기도 고양시 일산동구 고봉로278번길 29 상가동 203호 (중산동,산들마을2단지아파트)",경기도 고양시 일산동구 중산동 1651번지 번지 산들마을 2단지상가동 203호 ,10338,37.6837619,126.7800150,일반세탁업,180529.610768313    ,464626.388065265    ,일반세탁업,0,0,0,,0,,0,0,0,N,0,,,,,,,,,,N
고양시,20110303,대림세탁소,,영업/정상,영업,,,,,031 962 0576,58.50,"경기도 고양시 덕양구 호국로 859 (성사동, 원당e-편한세상 상가 가동 105호)",경기도 고양시 덕양구 성사동 869번지 원당e-편한세상 상가 가동 105호 ,10294,37.6609659,126.8396163,일반세탁업,185784.217497976    ,462086.921242864    ,일반세탁업,0,0,1,,,,0,0,0,N,0,,,,,2,,,1,0,N
고양시,20081016,대명 세탁,,폐업,폐업,20090525,,,,031 9069651,50.88,경기도 고양시 일산동구 백석로85번길 38 1층 일부 (백석동),경기도 고양시 일산동구 백석동 1222-3번지 1층일부 ,10420,37.6491573,126.7856595,일반세탁업,181018.679163899    ,460785.203237863    ,일반세탁업,0,0,0,0,0,0,0,0,0,N,0,,,,,2,,,1,0,N
고양시,19941216,대명세탁소,,영업/정상,영업,,,,,031 9038669,15.90,"경기도 고양시 일산동구 백석로 153, 지하104호 (백석동, 백송마을상가 )",경기도 고양시 일산동구 백석동 1139번지 백송마을상가 지하104호 ,10418,37.6516030,126.7929047,일반세탁업,181658.997620655    ,461056.171891144    ,일반세탁업,0,0,0,0,0,0,0,0,0,N,0,,,,,0,,,1,0,N
고양시,19950826,대명세탁소,,영업/정상,영업,,,,,031 9707455,19.44,"경기도 고양시 덕양구 충경로 87, 1층 14호 (행신동, 소만마을 상가동)",경기도 고양시 덕양구 행신동 783 소만마을 상가동 1층 14호 ,10529,37.6157120577,126.8393954181,일반세탁업,185838.800339468    ,457094.97362976     ,일반세탁업,,,,,,,,,,N,,,,,,,,,,,N
고양시,19951103,대명세탁소,,영업/정상,영업,,,,,031 9655351,31.90,"경기도 고양시 덕양구 호국로742번길 66 상가 2층 37호 (성사동,신원당5단지아파트)",경기도 고양시 덕양구 성사동 730번지 신원당마을상가 2층37호 ,10469,37.6516355,126.8357612,일반세탁업,185441.082517815    ,461052.086575487    ,일반세탁업,,,,,,,,,,N,,,,,,,,,,,N
고양시,19960113,대명세탁소,,영업/정상,영업,,,,,031 9170588,38.26,"경기도 고양시 일산서구 일산로 788 (대화동, 장성마을2단지 상가동 2층22호)",경기도 고양시 일산서구 대화동 2236 장성마을2단지 상가동 2층22호 ,10382,37.6738666475,126.7477437116,일반세탁업,177624.875089213    ,463550.177541469    ,일반세탁업,0,0,0,0,0,0,0,0,0,N,0,,,,,0,,,0,0,N
고양시,20151106,대성,,영업/정상,영업,,,,,,198.00,"경기도 고양시 덕양구 고골길116번길 14-45, 1층 (관산동, 가동)",경기도 고양시 덕양구 관산동 561-2번지 가동 1층 전체 ,10265,37.7115050,126.8638656,세탁업 기타,187921.863664537    ,467694.777139474    ,세탁업 기타,0,0,,,,,0,0,0,N,0,,,,,2,0,0,0,0,N
고양시,19910603,대성,,폐업,폐업,20081210,,,,031 9191352,592.49,경기도 고양시 일산서구 탄중로471번길 37 (일산동),경기도 고양시 일산서구 일산동 592-49번지 번지 ,10341,37.6863170,126.7734546,일반세탁업,179953.799921785    ,464911.355493177    ,일반세탁업,,,,,,,,,,N,,,,,,,,,,,N
고양시,20051020,대성사,,폐업,폐업,20070404,,,,,22.50,"경기도 고양시 덕양구 중앙로 550 지하 8호 (행신동,삼일프라자)",경기도 고양시 덕양구 행신동 950 -1번지 삼일프라쟈 지하8호 ,10495,37.6234177,126.8361756,일반세탁업,,,일반세탁업,18,,,,1,1,,,,N,,,,,임대,,,,,,N
고양시,19910523,대우,,폐업,폐업,20161020,,,,031 9766781,8.00,,경기도 고양시 일산서구 일산동 655번지 번지 ,10353,,,일반세탁업,,,일반세탁업,0,0,0,0,0,0,0,0,0,N,0,,,,,0,,,0,0,N
고양시,20061124,대우세탁소,,폐업,폐업,20120705,,,,031 932 1969,25.88,"경기도 고양시 일산동구 중앙로 1129 (장항동,호수마을 서관1051호)",경기도 고양시 일산동구 장항동 902번지 호수마을 서관1051호 ,10422,37.6488301,126.7792923,일반세탁업,180458.844874681    ,460748.278360947    ,일반세탁업,27,1,1,1,0,0,0,0,0,N,0,,,,임대,1,,,1,0,N
고양시,20040731,대우세탁소,,폐업,폐업,20081121,,,,031 9147753,49.81,"경기도 고양시 일산동구 호수로 672 B동 109호 (장항동,대우메종오피스텔)",경기도 고양시 일산동구 장항동 750-1번지 대우메종리브르 비109호 ,10364,37.6613798,126.7650995,일반세탁업,,,일반세탁업,15,1,,,1,1,,,,N,,,,,임대,,,,,,N
고양시,20120717,대우세탁소,,폐업,폐업,20210706,,,,031 932 1969,25.82,"경기도 고양시 일산동구 중앙로 1129, 1051호 (장항동, 호수마을 서관)",경기도 고양시 일산동구 장항동 902 호수마을 서관 1051호,10422,37.6488012291,126.7795667623,일반세탁업,180458.844874681    ,460748.278360947    ,일반세탁업,0,0,1,1,0,0,0,0,0,N,0,,,,,1,0,0,1,0,N
고양시,19940714,대우세탁소,,영업/정상,영업,,,,,031 9045662,18.10,"경기도 고양시 일산동구 강촌로 190, 상가동 111호 (백석동, 백송마을)",경기도 고양시 일산동구 백석동 1135 백송마을 상가동 111호,10418,37.6543257352,126.7943757177,일반세탁업,181806.093946373    ,461299.092731269    ,일반세탁업,0,0,0,0,0,0,0,0,0,N,0,,,,,0,,,1,0,N
고양시,19951204,대웅세탁소,,폐업,폐업,20051122,,,,031 9150203,48.50,경기도 고양시 일산동구 대산로11번길 32-12 (정발산동),경기도 고양시 일산동구 정발산동 689-6번지 번지 ,10362,37.6686307,126.7732370,일반세탁업,179929.131790481    ,462949.049272536    ,일반세탁업,0,0,0,,0,,0,0,0,N,0,,,,,,,,,,N
고양시,19990421,대일세탁소,,폐업,폐업,20041118,,,,031 9162603,21.76,,경기도 고양시 일산서구 일산동 1203-13번지 번지 (1층) ,,,,일반세탁업,,,일반세탁업,0,0,0,,0,,0,0,0,N,0,,,,,,,,,,N
고양시,20050115,대일컴퓨터크리닝,,영업/정상,영업,,,,,031 9162603,54.10,"경기도 고양시 일산동구 일산로427번길 42 (정발산동,1층일부)",경기도 고양시 일산동구 정발산동 1200-21번지 1층일부 ,10359,37.6722693,126.7772157,일반세탁업,180281.363591047    ,463350.441885224    ,일반세탁업,3,1,1,1,0,0,0,0,0,N,0,,,,자가,1,,,1,0,N
고양시,20130305,대진,,영업/정상,영업,,,,,,197.58,"경기도 고양시 일산동구 견달산로369번길 18, 1층 전체호 (문봉동, 가동)",경기도 고양시 일산동구 문봉동 107-1번지 가동 1층전체 ,10313,37.6993804,126.8194507,일반세탁업,184012.342954576    ,466352.988940443    ,일반세탁업,1,0,1,1,,,0,0,0,N,0,,,,,2,,,0,0,N
고양시,20160406,대한민국1호,,영업/정상,영업,,,,,031 9231851,198.00,"경기도 고양시 일산서구 산율길42번길 23-17, 2동 (구산동)",경기도 고양시 일산서구 구산동 17-4번지 외1필지 2동 ,10207,37.6916224,126.7116586,일반세탁업,174503.004845232    ,465515.803023029    ,일반세탁업,1,0,1,1,,,0,0,0,N,0,,,,,2,0,0,0,0,N
고양시,20050530,대화세탁소,,영업/정상,영업,,,,,031 9140074,61.88,"경기도 고양시 일산서구 강성로232번길 22 (대화동, 1층)",경기도 고양시 일산서구 대화동 2182 1층 ,10377,37.6764446255,126.7520268741,일반세탁업,178055.48686948     ,463810.654262343    ,일반세탁업,3,1,1,1,,,,,,N,,,,,임대,,,,,,N
고양시,20031030,대화세탁소,,영업/정상,영업,,,,,031 916 7142,30.40,경기도 고양시 일산서구 성저로 74 (대화동),경기도 고양시 일산서구 대화동 2072-11 ,10368,37.6850820076,126.7553085063,일반세탁업,178347.159957398    ,464768.340204069    ,일반세탁업,3,,,,,,,,,N,,,,,임대,,,,,,N
고양시,19951219,대화퍼크로세탁소,,폐업,폐업,20111128,,,,031 9173407,53.97,경기도 고양시 일산서구 일산로803번길 69 (대화동),경기도 고양시 일산서구 대화동 2284-11번지 번지 ,10383,37.6707111,126.7507994,일반세탁업,177948.295176884    ,463184.66175221     ,일반세탁업,0,0,0,,0,,0,0,0,N,0,,,,,,,,,,N
고양시,20040304,대흥세탁소,,영업/정상,영업,,,,,,21.42,"경기도 고양시 일산서구 탄중로471번길 36 (일산동,정원상가1층3호)",경기도 고양시 일산서구 일산동 592-50 정원상가1층3호 ,10342,37.6866977918,126.7730305309,일반세탁업,179912.5590794      ,464942.764797886    ,일반세탁업,3,1,1,1,,,,,,N,,,,,임대,,,,,,N
고양시,20140805,던탁,,폐업,폐업,20210624,,,,07082927480,149.82,"경기도 고양시 일산서구 현중로26번길 15-7, 지하1층 (탄현동)",경기도 고양시 일산서구 탄현동 1494-9 지하1층 ,10244,37.6935298354,126.7686649892,일반세탁업,179528.307840253    ,465703.799302554    ,일반세탁업,3,1,,,1,1,0,0,0,N,0,,,,,12,,,0,0,N
고양시,20041025,데시앙,,영업/정상,영업,,,,,031 9220505,27.72,"경기도 고양시 일산서구 탄중로101번길 36 (덕이동,태영아파트상가104,105호)","경기도 고양시 일산서구 덕이동 1521번지 태영아파트상가104,105호 ",10233,37.6943209,126.7572163,일반세탁업,178522.432000085    ,465804.001427727    ,일반세탁업,2,1,1,1,,,,,,N,,,,,임대,,,,,,N
고양시,20150722,도래울세탁전문점,,영업/정상,영업,,,,,031 9698289,123.08,"경기도 고양시 덕양구 도래울3로 28, 1(전체)층 (도내동)",경기도 고양시 덕양구 도내동 1034-2 1(전체)층 ,10551,37.6302596763,126.8724384165,일반세탁업,188673.566422692    ,458663.487887963    ,일반세탁업,4,1,1,1,0,0,0,0,0,N,0,,,,,2,0,0,2,0,N
고양시,20040219,도원상사,,폐업,폐업,20150807,,,,031 9680056,24.85,"경기도 고양시 덕양구 화중로 154 (화정동, 은빛마을5단지 미도파상가 B10호)",경기도 고양시 덕양구 화정동 870번지 은빛마을5단지 미도파상가 B10호 ,10474,37.6421846,126.8359524,일반세탁업,185457.654190376    ,460001.971602972    ,일반세탁업,2,,,,1,1,,,,N,,,,,,,,,,,N
고양시,20081211,동문3차세탁소,,폐업,폐업,20091207,,,,031 918 3777,36.93,경기도 고양시 일산서구 장자길118번길 26 1층 일부 (덕이동),경기도 고양시 일산서구 덕이동 725-3번지 1층일부 ,10228,37.7012369,126.7430421,일반세탁업,177275.311743424    ,466573.618274683    ,일반세탁업,2,0,1,1,,,0,0,0,N,0,,,,임대,2,,,,,N
고양시,20010712,동문그린세탁소,,영업/정상,영업,,,,,031 9212911,25.20,"경기도 고양시 일산서구 고양대로 596 (일산동, 동문상가 103호)",경기도 고양시 일산서구 일산동 973-31 동문상가 103호 ,10352,37.6866428744,126.7627329471,일반세탁업,179028.047933437    ,464923.99965728     ,일반세탁업,0,0,0,,0,,0,0,0,N,0,,,,,,,,,,N
고양시,20040824,동문세탁,,영업/정상,영업,,,,,031 9114171,32.66,"경기도 고양시 일산서구 대화1로 53, 203호 (대화동, 대화마을3단지 상가동)",경기도 고양시 일산서구 대화동 2573 대화마을3단지 상가동 203호,10218,37.6721379192,126.7326345176,일반세탁업,176305.028591251    ,463393.034399777    ,일반세탁업,2,,2,2,,,,,,N,,,,,임대,,,,,,N
고양시,20080806,동문세탁,,영업/정상,영업,,,,,031 911 0550,20.52,"경기도 고양시 일산서구 주화로 5, 112호 (주엽동, 강선마을16단지 상가동)",경기도 고양시 일산서구 주엽동 86 강선마을16단지 상가동 112호,10365,37.6659320955,126.7658745061,일반세탁업,179194.932978708    ,462641.382597597    ,일반세탁업,2,1,1,1,,,0,0,0,N,0,,,,임대,2,,,,,N
고양시,20040517,동문세탁,,폐업,폐업,20190814,,,,031 9678166,29.20,"경기도 고양시 일산동구 은행마을로 46-13, 나동 104호 (식사동)",경기도 고양시 일산동구 식사동 941-4번지 나동 104호,10304,37.6670492641,126.8054307330,일반세탁업,182775.768865023    ,462767.135206496    ,일반세탁업,2,0,1,1,0,0,0,0,0,N,0,,,,임대,0,,,1,0,N
고양시,19960415,동문세탁소,,폐업,폐업,20080825,,,,031 9670244,38.76,,경기도 고양시 덕양구 성사동 719번지 동문상가2층7호 ,10468,37.6529109,126.8393959,일반세탁업,185762.208638136    ,461192.890606421    ,일반세탁업,,,,,,,,,,N,,,,,,,,,,,N
고양시,20030120,동문세탁소,,영업/정상,영업,,,,,031 9036661,42.75,"경기도 고양시 일산동구 은행마을로6번길 30 (풍동,1층(일부))",경기도 고양시 일산동구 풍동 184-19 1층(일부) ,10304,37.6644152561,126.8056297302,일반세탁업,182784.23273263     ,462466.149924759    ,일반세탁업,2,0,2,2,0,0,0,0,0,N,0,,,,,0,,,1,0,N
고양시,20110418,동문세탁소,,폐업,폐업,20200407,,,,0319761472,27.95,"경기도 고양시 일산서구 일중로 31 (일산동,외1필지 1층일부)",경기도 고양시 일산서구 일산동 543-5번지 외1필지 1층일부 ,10353,37.6824091726,126.7746230023,일반세탁업,180054.867201403    ,464476.714331581    ,일반세탁업,1,0,,,,,0,0,0,N,0,,,,임대,1,,,1,0,N
고양시,20200408,동문세탁소,,영업/정상,영업,,,,,,36.00,"경기도 고양시 일산서구 일중로 31, 1층 일부호 (일산동)",경기도 고양시 일산서구 일산동 543-5번지 1층 일부 ,10353,37.6824091726,126.7746230023,일반세탁업,180054.867201403    ,464476.714331581    ,일반세탁업,0,0,1,1,,,0,0,0,N,0,,,,,1,0,0,1,0,N
고양시,20060925,동문세탁소,,폐업,폐업,20200316,,,,031 9058587,28.47,"경기도 고양시 일산동구 호수로 358-26 (백석동,외1필지 백석역동문굿모닝힐∥203동 105호)",경기도 고양시 일산동구 백석동 1321번지 외1필지 백석역동문굿모닝힐∥203동 105호 ,10449,37.6393210542,126.7869118304,일반세탁업,181134.309857948    ,459695.95862528     ,일반세탁업,10,4,1,1,0,0,0,0,0,N,0,,,,임대,1,,,1,0,N
고양시,19970303,동문세탁소,,폐업,폐업,20200827,,,,031 9113111,20.21,"경기도 고양시 일산서구 산현로 38, 203호 (일산동, 동문1차아파트 상가동)",경기도 고양시 일산서구 일산동 1694 동문1차아파트 상가동 203호,10348,37.6897541600,126.7659005929,일반세탁업,179287.198692807    ,465245.317700595    ,일반세탁업,,,,,,,,,,N,,,,,,,,,,,N
고양시,19931214,동문세탁소,,폐업,폐업,20060317,,,,031 9110550,16.64,"경기도 고양시 일산서구 주화로 5 상가동 111호 (주엽동,강선마을16단지아파트)",경기도 고양시 일산서구 주엽동 86번지 번지 강선마을 동문상가동 111호 ,10365,37.6658483,126.7649379,일반세탁업,179194.932978708    ,462641.382597597    ,일반세탁업,0,0,0,,0,,0,0,0,N,0,,,,,,,,,,N
고양시,20040624,동문현대세탁소,,영업/정상,영업,,,,,031 9071214,101.40,"경기도 고양시 일산동구 장백로 10 (백석동,외1필지 백석역굿모닝힐 101동 203호)",경기도 고양시 일산동구 백석동 1301번지 외1필지 백석역굿모닝힐 101동 203호 ,10449,37.6402193,126.7904101,일반세탁업,181422.605491071    ,459791.35054639     ,일반세탁업,10,3,2,2,0,0,0,0,0,N,0,,,,임대,1,1,1,1,0,N
고양시,19930130,동방세탁소,,폐업,폐업,20031124,,,,031 9710987,20.52,,"경기도 고양시 덕양구 행신동 223-17번지 ,26 ",10492,37.6228896,126.8452840,일반세탁업,186277.261567622    ,457859.628235208    ,일반세탁업,,,,,,,,,,N,,,,,,,,,,,N
고양시,19950214,동부건영세탁소,,영업/정상,영업,,,,,031 9147557,36.00,"경기도 고양시 일산서구 일산로 614, 비112호 (일산동, 후곡마을상가동)",경기도 고양시 일산서구 일산동 1050 후곡마을상가동 비112호,10372,37.6811417562,126.7608027744,일반세탁업,178861.822624706    ,464393.38375413     ,일반세탁업,0,0,0,0,0,0,0,0,0,N,0,,,,,0,,,0,0,N
고양시,19970303,동부세탁소,,영업/정상,영업,,,,,031 9121556,23.25,"경기도 고양시 일산서구 강선로 96, 강선마을5단지아파트 상가동 1층 112호 (주엽동)",경기도 고양시 일산서구 주엽동 49 강선마을5단지아파트 상가동 112호,10361,37.6720581849,126.7668573741,일반세탁업,179437.96451714     ,463268.068782259    ,일반세탁업,0,0,0,,0,,0,0,0,N,0,,,,,,,,,,N
고양시,19970303,동부세탁소,,폐업,폐업,19980314,,,,031 9168554,25.31,,경기도 고양시 일산서구 대화동 2228번지 번지 장성마을상가동 지하01호 ,10382,37.6748264,126.7456279,일반세탁업,177493.913012367    ,463641.458790099    ,일반세탁업,0,0,0,,0,,0,0,0,N,0,,,,,,,,,,N
고양시,19980327,동부세탁소,,폐업,폐업,20080603,,,,031 9168554,18.34,,경기도 고양시 일산서구 대화동 2228번지 번지 동부상가지하01호 ,10382,37.6748264,126.7456279,일반세탁업,177493.913012367    ,463641.458790099    ,일반세탁업,0,0,0,,0,,0,0,0,N,0,,,,,,,,,,N
고양시,19980226,동성사,,폐업,폐업,20141016,,,,031 9141973,22.50,"경기도 고양시 일산서구 킨텍스로 412, 102호 (일산동, 후곡마을7단지 상가동)",경기도 고양시 일산서구 일산동 1055번지 후곡마을7단지 상가동 102호,10371,37.6798209,126.7598827,일반세탁업,178752.162260088    ,464195.517321536    ,일반세탁업,0,0,0,,0,,0,0,0,N,0,,,,,,,,,,N
고양시,19990910,동성세탁,,영업/정상,영업,,,,,031 912 1093,22.20,"경기도 고양시 일산서구 호수로 710, 203호 (주엽동, 강선마을17단지 분산상가동)",경기도 고양시 일산서구 주엽동 90 강선마을17단지 분산상가동 203호,10365,37.6650660726,126.7643070185,일반세탁업,179048.146502387    ,462503.096553213    ,일반세탁업,0,0,0,0,0,0,0,0,0,N,0,,,,,0,,,0,0,N
고양시,19940205,동성세탁소,,폐업,폐업,20161020,,,,031 9121093,20.52,"경기도 고양시 일산서구 호수로 710, 203호 (주엽동, 강선마을17단지 분산상가)",경기도 고양시 일산서구 주엽동 90번지 강선마을17단지 분산상가 203호,10365,37.6646016,126.7632645,일반세탁업,179048.146502387    ,462503.096553213    ,일반세탁업,0,0,0,,0,,0,0,0,N,0,,,,,,,,,,N
고양시,20160628,동성세탁소,,영업/정상,영업,,,,,031 9141973,16.83,"경기도 고양시 일산서구 킨텍스로 412, 102호 (일산동, 후곡마을상가동)",경기도 고양시 일산서구 일산동 1055번지 후곡마을상가동 102호,10371,37.6798209,126.7598827,일반세탁업,178752.162260088    ,464195.517321536    ,일반세탁업,2,1,1,1,,,0,0,0,N,0,,,,,2,0,0,1,0,N
고양시,19950915,동성크리닝상사,,폐업,폐업,20200722,,,,031 9151120,22.03,"경기도 고양시 일산서구 일현로 122, 208호 (탄현동, 탄현마을8단지 상가동)",경기도 고양시 일산서구 탄현동 1476 탄현마을8단지 상가동 208호,10240,37.6976146548,126.7660612975,일반세탁업,179379.551180966    ,466267.792469141    ,일반세탁업,0,0,0,,0,,0,0,0,N,0,,,,,,,,,,N
고양시,19980303,동신세탁,,영업/정상,영업,,,,,031 9684935,22.98,"경기도 고양시 덕양구 화신로 102 (행신동, 햋빛마을 상가동 101호 일부)",경기도 고양시 덕양구 행신동 958 햋빛마을 상가동 101호 일부 ,10492,37.6216590271,126.8406799380,일반세탁업,185943.868126251    ,457688.920197164    ,일반세탁업,0,0,0,0,0,0,0,0,0,N,0,,,,,0,,,0,0,N
고양시,19931011,동신세탁소,,폐업,폐업,20130715,,,,031 9110331,29.63,경기도 고양시 일산서구 대산로 55 번지 강선마을 동신상가 2층 207호 (주엽동),경기도 고양시 일산서구 주엽동 46번지 번지 강선마을 동신상가 2층 207호 ,10361,37.6707142,126.7698189,일반세탁업,179627.076452356    ,463180.932711994    ,일반세탁업,0,0,0,,0,,0,0,0,N,0,,,,,,,,,,N
고양시,19930323,동신세탁소,,영업/정상,영업,,,,,031 9660966,29.93,"경기도 고양시 덕양구 호국로 754 (성사동,신원당마을 동신상가 203호)",경기도 고양시 덕양구 성사동 727 신원당마을 동신상가 203호 ,10468,37.6536034088,126.8344799053,일반세탁업,185312.147788863    ,461286.177240797    ,일반세탁업,,,,,,,,,,N,,,,,,,,,,,N
고양시,19940720,동신세탁소,,영업/정상,영업,,,,,031 9702732,25.84,,경기도 고양시 덕양구 행신동 769 동신상가 1층 107호동 ,,,,일반세탁업,185515.87136426     ,456956.68516019     ,일반세탁업,,,,,,,,,,N,,,,,,,,,,,N
고양시,19931202,동신세탁소,,영업/정상,영업,,,,,031 9677600,30.14,"경기도 고양시 덕양구 고양대로1384번길 53 (성사동,신원당마을상가 2층1호)",경기도 고양시 덕양구 성사동 724 신원당마을상가 2층1호 ,10469,37.6516985697,126.8387480055,일반세탁업,185619.802630337    ,461048.463526086    ,일반세탁업,,,,,,,,,,N,,,,,,,,,,,N
고양시,19941229,동신컴퓨터세탁소,,영업/정상,영업,,,,,031 9136315,24.00,"경기도 고양시 일산서구 후곡로 11, 202호 (일산동, 후곡마을8단지 상가동)",경기도 고양시 일산서구 일산동 1057 후곡마을8단지 상가동 202호,10371,37.6787293521,126.7627432280,일반세탁업,178923.886086033    ,464087.80367793     ,일반세탁업,0,0,0,,0,,0,0,0,N,0,,,,,,,,,,N
고양시,19900105,동아세탁,,영업/정상,영업,,,,,031 9743031,30.70,경기도 고양시 덕양구 능곡로 30-31 (토당동),경기도 고양시 덕양구 토당동 378-6 ,10510,37.6211617171,126.8228936797,일반세탁업,184296.135480672    ,457661.496954653    ,일반세탁업,,,,,,,,,,N,,,,,,,,,,,N
고양시,20131007,동아세탁소,,영업/정상,영업,,,,,031 913 1667,16.50,"경기도 고양시 일산서구 주엽로 163 (주엽동, 문촌마을8단지 상가동 105호일부)",경기도 고양시 일산서구 주엽동 12번지 문촌마을8단지 상가동 105호일부 ,10378,37.6735197,126.7581803,일반세탁업,178602.745344029    ,463495.416532417    ,일반세탁업,1,1,1,1,0,0,0,0,0,N,0,,,,,2,,,1,0,N
고양시,19980304,동아세탁소,,폐업,폐업,20020820,,,,031 9131667,32.40,"경기도 고양시 일산서구 주엽로 163 상가 지층 104호 (주엽동,문촌마을8단지아파트)",경기도 고양시 일산서구 주엽동 12번지 번지 문촌마을 상가지층104호 ,10378,37.6735197,126.7581803,일반세탁업,178602.745344029    ,463495.416532417    ,일반세탁업,0,0,0,,0,,0,0,0,N,0,,,,,,,,,,N
고양시,20091202,동아세탁소,,폐업,폐업,20100121,,,,031 913 1667,18.00,"경기도 고양시 일산서구 주엽로 163 상가동 105호 일부 (주엽동,문촌마을8단지아파트)",경기도 고양시 일산서구 주엽동 12번지 문촌마을상가동 105호 일부 ,10378,37.6735197,126.7581803,일반세탁업,178602.745344029    ,463495.416532417    ,일반세탁업,1,1,1,1,,,0,0,0,N,0,,,,임대,1,,,1,0,N
고양시,19921208,동아세탁소,,영업/정상,영업,,,,,031 9010711,23.45,"경기도 고양시 일산동구 강송로 196, 분산상가동 104호 (마두동, 강촌마을)",경기도 고양시 일산동구 마두동 757번지 강촌마을 분산상가동 104호,10416,37.6564613,126.7840970,일반세탁업,180884.686602289    ,461596.838359857    ,일반세탁업,0,0,0,0,0,0,0,0,0,N,0,,,,,1,,,1,0,N
고양시,19991029,동양세탁,,폐업,폐업,20140926,,,,031 9147471,20.00,"경기도 고양시 일산서구 후곡로 51, 107호 (일산동, 후곡마을2단지 상가동)",경기도 고양시 일산서구 일산동 1046번지 후곡마을2단지 상가동 107호,10372,37.6822628,126.7644093,일반세탁업,179154.149724571    ,464463.161285603    ,일반세탁업,,,,,,,,,,N,,,,,,,,,,,N
고양시,20040721,동양세탁소,,폐업,폐업,20180704,,,,031 9782558,26.24,"경기도 고양시 덕양구 백양로 85, 103호 (화정동, 동양트레벨2 오피스텔)",경기도 고양시 덕양구 화정동 975-3번지 동양트레벨2 오피스텔 103호,10500,37.6335231,126.8337286,일반세탁업,185260.272932577    ,459039.869296121    ,일반세탁업,20,,1,1,,,,,,N,,,,,임대,,,,,,N
고양시,19961226,동양세탁소,,폐업,폐업,20000628,,,,031 9066643,103.18,,경기도 고양시 일산동구 백석동 1221-1번지 번지 ,10420,,,일반세탁업,,,일반세탁업,,,,,,,,,,N,,,,,,,,,,,N
고양시,19970704,동양세탁소,,폐업,폐업,20071010,,,,031 9180771,57.60,경기도 고양시 일산동구 산두로175번길 20-2 (정발산동),경기도 고양시 일산동구 정발산동 1257-5번지 번지 ,10358,37.6727656,126.7824056,일반세탁업,180738.566311861    ,463407.685620336    ,일반세탁업,0,0,0,,0,,0,0,0,N,0,,,,,,,,,,N
고양시,20150320,동양세탁소,,영업/정상,영업,,,,,02  61047732,45.00,"경기도 고양시 덕양구 덕수천1로 37, 103호 (삼송동, 삼송마을18단지 1812동상가)",경기도 고양시 덕양구 삼송동 332번지 삼송마을18단지 1812동상가 103호 ,10587,37.6483288,126.8795866,일반세탁업,189309.012683029    ,460677.7311726      ,일반세탁업,0,0,,,,,0,0,0,N,0,,,,,4,0,0,0,0,N
고양시,20060316,동양컴퓨터 세탁소,,영업/정상,영업,,,,,031 9196555,16.59,"경기도 고양시 일산서구 고양대로 631, 204호 (일산동, 동양아파트 상가동)",경기도 고양시 일산서구 일산동 955-2 동양아파트 상가동 204호,10351,37.6862742396,126.7672164823,일반세탁업,179492.423779281    ,464852.271359384    ,일반세탁업,2,1,2,2,,,,,,N,,,,,임대,1,,,,,N
고양시,19960224,동양태챙세탁소,,폐업,폐업,20080725,,,,031 9135331,23.25,"경기도 고양시 일산서구 후곡로 51 상가동 202호 (일산동,후곡마을2단지아파트)",경기도 고양시 일산서구 일산동 1046번지 번지 후곡마을2단지상가동 202호 ,10372,37.6822628,126.7644093,일반세탁업,179154.149724571    ,464463.161285603    ,일반세탁업,0,0,0,,0,,0,0,0,N,0,,,,,,,,,,N
고양시,20060323,동익세탁소,,영업/정상,영업,,,,,031 8148484,23.50,경기도 고양시 덕양구 푸른마을로 11,경기도 고양시 덕양구 벽제동 719 푸른마을상가동 203호 ,10270,37.7094117275,126.9032087434,일반세탁업,,,일반세탁업,3,,2,2,,,,,,N,,,,,임대,,,,,,N
고양시,19960113,동익세탁소,,영업/정상,영업,,,,,031 9112911,16.28,"경기도 고양시 일산서구 대산로 251 (대화동, 성저마을1단지 상가동 2층)",경기도 고양시 일산서구 대화동 2212 성저마을1단지 상가동 2층 ,10376,37.6798177378,126.7509496822,일반세탁업,177933.962753344    ,464109.799679847    ,일반세탁업,0,0,0,,0,,0,0,0,N,0,,,,,,,,,,N
고양시,19870612,동헌세탁소,,영업/정상,영업,,,,,031 9632359,17.50,,경기도 고양시 덕양구 관산동 178-23 ,10285,37.6877124470,126.8653952492,일반세탁업,,,일반세탁업,,,,,,,,,,N,,,,,,,,,,,N
고양시,20061122,두산세탁,,폐업,폐업,20100422,,,,031 9069092,22.69,"경기도 고양시 일산동구 숲속마을로 68 203호 (풍동,숲속마을6단지아파트)",경기도 고양시 일산동구 풍동 1268번지 숲속마을 6단지 근린생활시설 203호 ,10306,37.6686815,126.7958148,일반세탁업,181920.966167236    ,462949.652187785    ,일반세탁업,2,1,2,2,0,0,0,0,0,N,0,,,,임대,1,,,1,0,N
고양시,19950318,두산세탁소,,폐업,폐업,20180530,,,,031 9038166,24.45,"경기도 고양시 일산동구 강촌로 168, 상가동 B102호 (백석동, 백송마을)",경기도 고양시 일산동구 백석동 1140번지 백송마을 상가동 B102호,10418,37.6529624,126.7923229,일반세탁업,181608.922399144    ,461207.723193714    ,일반세탁업,0,0,0,0,0,0,0,0,0,N,0,,,,,0,,,1,0,N
고양시,19970303,두산세탁소,,영업/정상,영업,,,,,031 9762293,26.22,경기도 고양시 일산동구 중산로 269 (중산동),경기도 고양시 일산동구 중산동 1555번지 ,10336,37.6972607,126.7812899,일반세탁업,180589.415581599    ,466125.804220588    ,일반세탁업,0,0,0,0,0,0,0,0,0,N,0,,,,,0,,,1,0,N
고양시,19950714,두산세탁소,,영업/정상,영업,,,,,031 9705129,20.73,경기도 고양시 덕양구 무원로 1,경기도 고양시 덕양구 행신동 702 무원마을 상가동 지하10호 ,10522,37.6130305952,126.8321903491,일반세탁업,185008.31057454     ,456812.862690351    ,일반세탁업,,,,,,,,,,N,,,,,,,,,,,N
고양시,20061129,두산위브세탁소,,영업/정상,영업,,,,,031 9026877,18.27,"경기도 고양시 일산동구 숲속마을로 70, 201호 (풍동, 숲속마을6단지 근린생활시설)",경기도 고양시 일산동구 풍동 1268번지 숲속마을6단지 근린생활시설 201호 ,10306,37.6686815,126.7958148,일반세탁업,181920.966167236    ,462949.652187785    ,일반세탁업,2,1,2,2,0,0,0,0,0,N,0,,,,임대,1,,,1,0,N
고양시,19940811,두산컴퓨터세탁,,영업/정상,영업,,,,,031 9123405,22.80,"경기도 고양시 일산서구 강선로 35, 114호 (주엽동, 강선마을14단지 상가동)",경기도 고양시 일산서구 주엽동 101 강선마을14단지 상가동 114호,10385,37.6678783300,126.7628846004,일반세탁업,178870.612713521    ,462871.766097782    ,일반세탁업,0,0,0,,0,,0,0,0,N,0,,,,,,,,,,N
고양시,20040728,드라마세탁소,,영업/정상,영업,,,,,031 9089339,26.52,"경기도 고양시 일산동구 백마로213번길 36 (장항동,양우드라마시티106호)",경기도 고양시 일산동구 장항동 854-1번지 양우드라마시티106호 ,10403,37.6559090,126.7732082,일반세탁업,179921.821651492    ,461536.029587153    ,일반세탁업,10,3,1,1,0,0,0,0,0,N,0,,,,임대,0,,,1,0,N
고양시,20180316,디어베이비,,영업/정상,영업,,,,,,75.00,"경기도 고양시 덕양구 지도로42번길 12, 1(일부)층 (토당동)",경기도 고양시 덕양구 토당동 876-2 1(일부)층 ,10515,37.6206250452,126.8251875180,일반세탁업,184497.672016917    ,457601.459388204    ,일반세탁업,0,0,0,0,0,0,0,0,0,N,0,,,,,1,0,0,1,0,N
고양시,20060901,뜨란채세탁소,,영업/정상,영업,,,,,031 9072232,17.67,"경기도 고양시 일산동구 숲속마을1로 55 (풍동,숲속마을 2단지 상가동105호)",경기도 고양시 일산동구 풍동 1286번지 숲속마을 2단지 상가동105호 ,10307,37.6659113,126.7985654,일반세탁업,182163.647522504    ,462641.418140145    ,일반세탁업,1,0,1,1,0,0,0,0,0,N,0,,,,임대,1,,,1,0,N
고양시,20041206,라끄빌드라이크리닝센타,,폐업,폐업,20120829,,,,031 9199977,68.40,"경기도 고양시 일산동구 호수로 662 (장항동,외1필지 삼성라끄빌 211호)",경기도 고양시 일산동구 장항동 751번지 외1필지 삼성라끄빌 211호 ,10401,37.6608223,126.7656566,일반세탁업,179257.261374439    ,462085.127524612    ,일반세탁업,15,5,2,2,0,0,0,0,0,N,0,,,,임대,0,,,1,0,N
고양시,19970201,라이프세탁,,영업/정상,영업,,,,,031 9677765,33.56,,경기도 고양시 덕양구 화정동 851-1 달빛라이프상가 204호 ,10473,,,일반세탁업,,,일반세탁업,,,,,,,,,,N,,,,,,,,,,,N
고양시,19971013,라이프세탁소,,영업/정상,영업,,,,,031 9020542,19.60,"경기도 고양시 일산동구 강석로 108, 라이프상가동 (마두동, 강촌마을)",경기도 고양시 일산동구 마두동 789번지 강촌마을 라이프상가동 ,10415,37.6511039,126.7810759,일반세탁업,180616.226680491    ,461000.693889075    ,일반세탁업,0,0,0,0,0,0,0,0,0,N,0,,,,,0,,,1,0,N
고양시,19950118,라이프세탁소,,영업/정상,영업,,,,,031 9112373,22.57,"경기도 고양시 일산서구 대산로 162 (주엽동, 문촌마을2단지상가 3층 1호)",경기도 고양시 일산서구 주엽동 5번지 문촌마을2단지상가 3층 1호 ,10371,37.6768216,126.7603006,일반세탁업,178789.574323179    ,463860.488340512    ,일반세탁업,0,0,0,,0,,0,0,0,N,0,,,,,,,,,,N
고양시,19930501,라이프세탁소,,폐업,폐업,19971009,,,,031 9020542,.00,,경기도 고양시 일산동구 마두동 789번지 번지 강촌마을 라이프상가2층 203호 ,10415,37.6511039,126.7810759,일반세탁업,180616.226680491    ,461000.693889075    ,일반세탁업,0,0,0,,0,,0,0,0,N,0,,,,,,,,,,N
고양시,19970703,라이프크리닝,,폐업,폐업,19981123,,,,031 9024445,62.99,경기도 고양시 일산동구 백석로11번길 14 (백석동),경기도 고양시 일산동구 백석동 1434-8번지 번지 ,10424,37.6434900,126.7807133,일반세탁업,180581.9300181      ,460156.606667311    ,일반세탁업,0,0,0,,0,,0,0,0,N,0,,,,,,,,,,N
고양시,20101217,라임크리닝,,폐업,폐업,20171201,,,,031 977 9998,84.00,"경기도 고양시 일산동구 위시티4로 80, 상가2동 103~104호 (식사동, 위시티일산자이1단지)",경기도 고양시 일산동구 식사동 1487번지 위시티일산자이1단지 상가2동 103~104호,10321,37.6834395,126.8119625,일반세탁업,183533.12192800000  ,464993.44686100000  ,일반세탁업,1,0,1,1,0,0,0,0,0,N,0,,,,자가,5,,,1,0,N
고양시,20171201,라임크리닝,,영업/정상,영업,,,,,,84.00,"경기도 고양시 일산동구 위시티4로 80 (식사동, 위시티일산자이1단지 상가2동 103~104호)",경기도 고양시 일산동구 식사동 1487번지 위시티일산자이1단지 상가2동 103~104호 ,10321,37.6834395602,126.8119625080,일반세탁업,183533.12192800000  ,464993.44686100000  ,일반세탁업,0,0,1,1,0,0,0,0,0,N,0,,,,임대,1,1,1,1,0,N
고양시,20180503,라임크리닝,,폐업,폐업,20190924,,,,,125.60,"경기도 고양시 일산서구 일중로 73, 1층 일부호 (일산동)",경기도 고양시 일산서구 일산동 579-3번지 1층 일부 ,10341,37.6860677843,126.7749859107,일반세탁업,180088.40041188     ,464883.226881406    ,일반세탁업,5,1,1,1,,,0,0,0,N,0,,,,,0,0,0,0,0,N
고양시,20100705,래미안세탁,,폐업,폐업,20110308,,,,031 968 3571,28.20,,경기도 고양시 덕양구 성사동 860번지 래미안휴레스트 정문상가 205호 ,10467,37.6593754,126.8426570,일반세탁업,186070.790695002    ,461919.855299157    ,일반세탁업,2,0,0,0,0,0,0,0,0,N,0,,,,,1,,,1,0,N
고양시,20100930,럭키세탁소,,영업/정상,영업,,,,,031 912 0222,35.44,"경기도 고양시 일산서구 강선로 74, 206호 (주엽동, 강선마을8단지 상가동)",경기도 고양시 일산서구 주엽동 63 강선마을8단지 상가동 206호,10361,37.6703382311,126.7656610162,일반세탁업,179335.868789335    ,463073.711845168    ,일반세탁업,3,1,2,,,,0,0,0,N,0,,,,자가,1,,,1,0,N
고양시,19970304,럭키세탁소,,폐업,폐업,20070115,,,,031 9120222,31.05,"경기도 고양시 일산서구 강선로 74 상가동 206호 (주엽동,강선마을8단지아파트)",경기도 고양시 일산서구 주엽동 63번지 번지 강선마을상가동 206호 ,10361,37.6697436,126.7665123,일반세탁업,179335.868789335    ,463073.711845168    ,일반세탁업,0,0,0,,0,,0,0,0,N,0,,,,,,,,,,N
고양시,19941001,럭키세탁소,,폐업,폐업,19970228,,,,031 9120222,34.52,"경기도 고양시 일산서구 강선로 74 상가동 206호 (주엽동,강선마을8단지아파트)",경기도 고양시 일산서구 주엽동 63번지 번지 강선마을 상가동 206호 ,10361,37.6697436,126.7665123,일반세탁업,179335.868789335    ,463073.711845168    ,일반세탁업,0,0,0,,0,,0,0,0,N,0,,,,,,,,,,N
고양시,20030808,런드리샾,,영업/정상,영업,,,,,,30.78,"경기도 고양시 일산동구 중앙로 1341 (장항동,청원레이크빌-2 111호)",경기도 고양시 일산동구 장항동 727-2번지 청원레이크빌-2 111호 ,10366,37.6645485,126.7682401,일반세탁업,179485.511830407    ,462496.438646084    ,일반세탁업,0,0,0,1,0,0,0,0,0,N,0,,,,임대,0,,,1,0,N
고양시,20040131,레이크세탁소,,폐업,폐업,20061018,,,,031 9246112,23.79,경기도 고양시 일산동구 호수로 688 1층 일부 (장항동),경기도 고양시 일산동구 장항동 749번지 1층 일부 ,10364,37.6629354,126.7635758,일반세탁업,179075.48978762     ,462320.236524969    ,일반세탁업,,,,,,,,,,N,,,,,임대,,,,,,N
고양시,20061030,로데오세탁소,,영업/정상,영업,,,,,031 9322202,71.76,"경기도 고양시 일산동구 중앙로1275번길 38-10 (장항동,우림로데오스위트 213호)",경기도 고양시 일산동구 장항동 771-1번지 우림로데오스위트 213호 ,10401,37.6598507,126.7708728,일반세탁업,179718.471062692    ,461975.053805917    ,일반세탁업,15,4,2,2,0,0,0,0,0,N,0,,,,임대,1,,,1,0,N
고양시,19960223,로얄크리닝,,폐업,폐업,20140915,,,,031 9146140,16.46,"경기도 고양시 일산서구 강선로 187, 104호 (일산동, 후곡마을10단지 분산상가동)",경기도 고양시 일산서구 일산동 1074번지 후곡마을10단지 분산상가동 104호,10374,37.6800121,126.7697898,일반세탁업,179629.035738696    ,464213.216085856    ,일반세탁업,,,,,,,,,,N,,,,,,,,,,,N
고양시,19940704,로얄크리닝,,폐업,폐업,20080321,,,,031 9190345,148.48,경기도 고양시 일산서구 법곳길115번길 128 (법곳동),경기도 고양시 일산서구 법곳동 1761-2번지 번지 ,10203,37.6607713,126.7219109,일반세탁업,175398.364842079    ,462088.080516917    ,일반세탁업,0,0,0,,0,,0,0,0,N,0,,,,,,,,,,N
고양시,19941229,롯데세탁소,,폐업,폐업,19970610,,,,031 9154791,36.30,경기도 고양시 일산서구 후곡로 12 번지 후곡마을 롯데상가 2층204호 (일산동),경기도 고양시 일산서구 일산동 1058번지 번지 후곡마을 롯데상가 2층204호 ,10375,37.6776588,126.7643787,일반세탁업,179149.247761039    ,463952.456511416    ,일반세탁업,0,0,0,,0,,0,0,0,N,0,,,,,,,,,,N
고양시,20060911,롯데세탁소,,영업/정상,영업,,,,,031 915 4791,20.71,"경기도 고양시 일산서구 후곡로 12, 107호 (일산동, 후곡마을9단지상가동)",경기도 고양시 일산서구 일산동 1058 후곡마을9단지상가동 107호,10375,37.6783727435,126.7633704725,일반세탁업,179149.247761039    ,463952.456511416    ,일반세탁업,2,1,,,,,,,,N,,,,,,1,,,,,N
고양시,19980422,롯데세탁소,,폐업,폐업,20060907,,,,031 9154791,36.39,"경기도 고양시 일산서구 후곡로 12 상가 206호 (일산동,후곡마을9단지아파트)",경기도 고양시 일산서구 일산동 1058번지 번지 후곡마을상가 206호 ,10375,37.6776588,126.7643787,일반세탁업,179149.247761039    ,463952.456511416    ,일반세탁업,0,0,0,,0,,0,0,0,N,0,,,,,,,,,,N
고양시,20120824,루벤스세탁소,,폐업,폐업,20180223,,,,031 903 7779,25.20,"경기도 고양시 일산동구 장백로 19, 108일부호 (백석동, 일산백석더루벤스카운티)",경기도 고양시 일산동구 백석동 1313번지 일산백석더루벤스카운티 108일부호,10449,37.6402981,126.7891523,일반세탁업,181325.030138081    ,459801.375966501    ,일반세탁업,0,0,1,1,,,0,0,0,N,0,,,,,0,,,0,0,N
고양시,20161122,리빙클럽,,영업/정상,영업,,,,,,43.00,"경기도 고양시 일산동구 일산로358번길 39 (정발산동, 1층일부)",경기도 고양시 일산동구 정발산동 1348-10번지 1층일부 ,10406,37.6680217,126.7846865,일반세탁업,180938.123454869    ,462878.957311104    ,일반세탁업,0,0,,,,,0,0,0,N,0,,,,임대,1,0,1,1,0,N
고양시,20030715,리얼크린,,폐업,폐업,20060125,,,,031 9381171,27.60,경기도 고양시 덕양구 행신로303번길 34 101호 (행신동),경기도 고양시 덕양구 행신동 966-6번지 101호 ,10492,37.6225271,126.8437555,일반세탁업,186142.93903837     ,457818.137946466    ,일반세탁업,3,1,1,1,,,,,,N,,,,,임대,,,,,,N
고양시,19980714,리패션세탁,,영업/정상,영업,,,,,031 9147060,27.13,경기도 고양시 일산동구 무궁화로75번길 42 (정발산동),경기도 고양시 일산동구 정발산동 717-5번지 ,10362,37.6667963,126.7704658,일반세탁업,179684.437104128    ,462746.828490423    ,일반세탁업,0,0,0,0,0,0,0,0,0,N,0,,,,,0,,,1,0,N
고양시,19951104,리패션세탁소,,폐업,폐업,19980619,,,,031 9147060,22.11,경기도 고양시 일산동구 무궁화로75번길 42 (정발산동),경기도 고양시 일산동구 정발산동 717-5번지 번지 ,10362,37.6667963,126.7704658,일반세탁업,179684.437104128    ,462746.828490423    ,일반세탁업,0,0,0,,0,,0,0,0,N,0,,,,,,,,,,N
고양시,20030421,마더케어스,,폐업,폐업,20030818,,,,031 8151113,89.21,경기도 고양시 덕양구 능곡로 12-9 2층 (토당동),경기도 고양시 덕양구 토당동 348-9번지 2층 ,10510,37.6211610,126.8211269,일반세탁업,184142.305335792    ,457672.386861748    ,일반세탁업,4,1,2,2,,,,,,N,,,,,,,,,,,N
고양시,20190220,마린세탁,,영업/정상,영업,,,,,,162.00,"경기도 고양시 덕양구 고골길178번길 9-16, 제2동 1층 (대자동)",경기도 고양시 덕양구 대자동 774-1 제2동 1층 ,10265,37.7150320848,126.8729380814,일반세탁업,188732.504449351    ,468062.03834512     ,일반세탁업,0,0,1,1,,,0,0,0,N,0,,,,,3,0,1,0,0,N
고양시,20190828,마마운동화 이불 빨래방,,영업/정상,영업,,,,,,25.20,"경기도 고양시 일산동구 일산로 205-1, 백마마을상가동 105호 (마두동)",경기도 고양시 일산동구 마두동 739번지 백마마을2단지 ,10416,37.6539913576,126.7882971929,운동화전문세탁업,181254.504102097    ,461319.724259726    ,운동화전문세탁업,0,0,0,0,0,0,0,0,0,N,0,,,,,2,0,0,4,0,N
고양시,20210128,마마운동화이불 빨래방,,영업/정상,영업,,,,,,22.72,"경기도 고양시 덕양구 호국로 851, 108호 (성사동)",경기도 고양시 덕양구 성사동 714 ,10294,37.6608845430,126.8406166104,운동화전문세탁업,185868.070324289    ,462068.434944958    ,운동화전문세탁업,0,0,0,0,0,0,0,0,0,N,0,,,,,1,0,0,3,0,N
고양시,20161021,마마운동화이불빨래방,,영업/정상,영업,,,,,031 975 8482,60.04,"경기도 고양시 일산동구 하늘마을로93번길 22-12, 1층 전체호 (중산동)",경기도 고양시 일산동구 중산동 1707번지 ,10310,37.6801857,126.7851836,빨래방업,180985.896770363    ,464229.01376168     ,빨래방업,0,0,,,,,0,0,0,N,0,,,,,2,0,0,0,0,N
고양시,20181022,마마운동화이불빨래방,,영업/정상,영업,,,,,031 973 8482,34.00,"경기도 고양시 덕양구 무원로36번길 1, 1(일부)층 (행신동)",경기도 고양시 덕양구 행신동 720-12번지 1층일부 ,10524,37.6159433,126.8325112,빨래방업,185146.829884222    ,457090.165890956    ,빨래방업,0,0,1,1,0,0,0,0,0,N,0,,,,,4,0,0,0,0,N
고양시,20181012,마마운동화이불빨래방,,폐업,폐업,20201030,,,,02  381 8481,31.72,"경기도 고양시 덕양구 삼송로 170, 1(일부)층 (삼송동)",경기도 고양시 덕양구 삼송동 135-73 1층 일부 ,10590,37.6529256304,126.8926193649,운동화전문세탁업,190455.61275004     ,461175.977694224    ,운동화전문세탁업,1,0,,,,,0,0,0,N,0,,,,,2,0,0,2,0,N
고양시,20140731,마미손세탁,,폐업,폐업,20180703,,,,031 962 3432,66.00,"경기도 고양시 덕양구 원당로 119, 1(일부)층 (주교동)",경기도 고양시 덕양구 주교동 568-14번지 1층 일부 ,10298,37.6624057,126.8383664,일반세탁업,185674.921482023    ,462246.147292809    ,일반세탁업,1,0,1,1,,,0,0,0,N,0,,,,,0,,,0,0,N
고양시,19980513,매직크리닝,,폐업,폐업,20051101,,,,031 9771633,41.48,경기도 고양시 일산동구 중산로157번길 2 (중산동),경기도 고양시 일산동구 중산동 1584-6번지 번지 ,10338,37.6860423,126.7805411,일반세탁업,180578.515998561    ,464880.374176777    ,일반세탁업,0,0,0,,0,,0,0,0,N,0,,,,,,,,,,N
고양시,20101203,매직크린,,폐업,폐업,20161020,,,,031 922 9570,126.00,"경기도 고양시 일산서구 대화2로 120 (대화동,나동 1층일부)",경기도 고양시 일산서구 대화동 742-1번지 나동 1층일부 ,10218,37.6739366,126.7344659,일반세탁업,176510.158239058    ,463546.035250788    ,일반세탁업,3,0,1,0,0,0,0,0,0,N,0,,,,임대,1,,,1,0,N
고양시,19970826,맵시,,폐업,폐업,20030429,,,,031 9791244,23.80,"경기도 고양시 덕양구 백양로 34 상가 206호 (화정동,옥빛마을15단지)",경기도 고양시 덕양구 화정동 1129번지 옥빛마을 15단지상가 206호 ,10504,37.6285492,126.8334000,일반세탁업,185229.810713487    ,458487.948898109    ,일반세탁업,,,,,,,,,,N,,,,,,,,,,,N
고양시,20030429,맵시세탁,,영업/정상,영업,,,,,031 9791244,20.85,"경기도 고양시 덕양구 백양로 34 (화정동,옥빛마을 15단지상가 206호)",경기도 고양시 덕양구 화정동 1129 옥빛마을 15단지상가 206호 ,10504,37.6286575856,126.8334104784,일반세탁업,185229.810713487    ,458487.948898109    ,일반세탁업,2,1,2,2,,,,,,N,,,,,,,,,,,N
고양시,19960625,멋쟁이사크리닝,,영업/정상,영업,,,,,031 9641756,17.05,경기도 고양시 덕양구 화중로 219,경기도 고양시 덕양구 화정동 858 달빛2상가 B01호 ,10472,37.6474512860,126.8335826137,일반세탁업,185122.470133336    ,460512.022207547    ,일반세탁업,,,,,,,,,,N,,,,,,,,,,,N
고양시,20101210,메이저세탁,,폐업,폐업,20150223,,,,031  9012737,33.42,"경기도 고양시 일산동구 중앙로 1227 (장항동,동양메이저타워 110호)",경기도 고양시 일산동구 장항동 849번지 동양메이저타워 110호 ,10403,37.6557680,126.7748179,일반세탁업,180064.545989764    ,461521.765221184    ,일반세탁업,15,6,1,1,,,0,0,0,N,0,,,,임대,2,,,1,0,N
고양시,20170105,메탈 팩토리,,폐업,폐업,20201230,,,,,132.00,"경기도 고양시 일산동구 공릉천로 3, 2층 (사리현동)",경기도 고양시 일산동구 사리현동 114-7 ,10260,37.6948769689,126.8428564832,운동화전문세탁업,186071.309056576    ,465843.64354757     ,운동화전문세탁업,0,0,,,,,0,0,0,N,0,,,,,2,0,0,4,0,N
고양시,19970201,명동세탁,,폐업,폐업,20100804,,,,031 9651978,18.70,,경기도 고양시 덕양구 화정동 870번지 은빛종합상가 102호 ,10474,37.6421846,126.8359524,일반세탁업,185457.654190376    ,460001.971602972    ,일반세탁업,0,0,0,0,0,0,0,0,0,N,0,,,,,0,,,0,0,N
고양시,20040511,명동세탁소,,폐업,폐업,20081205,,,,,16.50,,경기도 고양시 덕양구 동산동 112-24번지 ,10596,37.6494365,126.8977263,일반세탁업,,,일반세탁업,2,,1,1,,,,,,N,,,,,,,,,,,N
고양시,20050614,명동컴퓨터세탁,,영업/정상,영업,,,,,031 9036928,33.00,"경기도 고양시 일산동구 산두로 40, 1층 일부호 (마두동)",경기도 고양시 일산동구 마두동 865-5번지 1층 일부호,10412,37.6619945,126.7897134,일반세탁업,181379.808205428    ,462209.768992014    ,일반세탁업,3,0,1,1,0,0,0,0,0,N,0,,,,임대,2,,,1,0,N
고양시,19960224,명문컴퓨터크리닝,,영업/정상,영업,,,,,031 9765809,23.25,"경기도 고양시 일산동구 탄중로 341, 209호 (중산동, 중산마을5단지상가동 )",경기도 고양시 일산동구 중산동 1575번지 중산마을5단지 상가동 209호,10332,37.6926528,126.7839907,일반세탁업,180883.633152084    ,465611.709777057    ,일반세탁업,0,0,0,0,0,0,0,0,0,N,0,,,,,0,,,1,0,N
고양시,20071010,명품 세탁소,,폐업,폐업,20080904,,,,031 911 1413,19.80,경기도 고양시 일산서구 성저로 112-1 (대화동),경기도 고양시 일산서구 대화동 2005-7번지 ,10369,37.6845134,126.7591532,일반세탁업,178690.978008654    ,464714.073774487    ,일반세탁업,1,1,1,1,0,0,0,0,0,,0,,,,임대,1,,,,,N
고양시,19980820,명품 해피크린,,폐업,폐업,20091214,,,,031 9173636,16.59,"경기도 고양시 일산서구 대산로 187 문촌마을 상가동 지하118호, 지하119호 (주엽동)","경기도 고양시 일산서구 주엽동 8번지 문촌마을 상가동 지하118호, 지하119호 ",10378,37.6762118,126.7573554,일반세탁업,178530.34064966     ,463793.476871589    ,일반세탁업,,,,,,,,,,N,,,,,,,,,,,N
고양시,20100716,명품i(아이)크린,,영업/정상,영업,,,,,031  9069092,36.30,"경기도 고양시 일산서구 탄현로 136, 110호일부(※내부호수116)호 (탄현동, 일산에듀포레푸르지오)",경기도 고양시 일산서구 탄현동 1650 일산에듀포레푸르지오 110호일부(※내부호수116) ,10248,37.7041536098,126.7682202877,일반세탁업,,,일반세탁업,0,0,0,0,0,0,0,0,0,N,0,,,,,0,,,0,0,N
고양시,20051122,명품달인크리닝,,영업/정상,영업,,,,,031 9326838,55.25,"경기도 고양시 일산동구 호수로 340-38, 120호 (백석동, 비잔티움일산1단지)",경기도 고양시 일산동구 백석동 1318번지 외3필지 비잔티움일산1단지 120호 ,10449,37.6388558,126.7887146,일반세탁업,181287.550497474    ,459640.607210325    ,일반세탁업,10,2,1,1,0,0,0,0,0,N,0,,,,임대,1,,,1,0,N
고양시,20100716,명품두산세탁,,폐업,폐업,20181203,,,,031  9069092,26.77,"경기도 고양시 일산동구 숲속마을로 70, 104호 (풍동, 숲속마을6단지 근린생활시설 )",경기도 고양시 일산동구 풍동 1268번지 숲속마을6단지 근린생활시설 104호 ,10306,37.6686815,126.7958148,일반세탁업,181920.966167236    ,462949.652187785    ,일반세탁업,0,0,0,0,0,0,0,0,0,N,0,,,,,0,,,0,0,N
고양시,19981112,명품빨래박사,,폐업,폐업,20160324,,,,031 9223882,28.80,"경기도 고양시 일산서구 고봉로329번길 6, 207호 (일산동, 상가동)",경기도 고양시 일산서구 일산동 583-61번지 외3필지 상가동 207호 ,10339,37.6890169,126.7765414,세탁업 기타,180208.177392069    ,465172.929751626    ,세탁업 기타,0,0,0,,0,,0,0,0,N,0,,,,,,,,,,N
고양시,20120912,명품빨래박사,,폐업,폐업,20120927,,,,031 922 3882,49.50,"경기도 고양시 일산서구 고양대로 618, 118호 (일산동, 풍원리빙프라자)",경기도 고양시 일산서구 일산동 957-3번지 풍원리빙프라자 118호,10352,37.6858768,126.7649873,빨래방업,179205.349739118    ,464864.960454706    ,빨래방업,14,2,,,,,0,0,0,N,0,,,,,2,,,0,0,N
고양시,20061030,명품세탁,,영업/정상,영업,,,,,031 9065556,46.81,"경기도 고양시 일산동구 호수로 606 (장항동,외1필지 코오롱레이크 폴리스1B-110호)",경기도 고양시 일산동구 장항동 865번지 외1필지 코오롱레이크 폴리스1B-110호 ,10402,37.6566846,126.7690128,일반세탁업,179553.853358584    ,461623.784344745    ,일반세탁업,15,3,1,1,0,0,0,0,0,N,0,,,,,1,,,1,0,N
고양시,20051207,명품세탁,,영업/정상,영업,,,,,031 9066166,28.88,경기도 고양시 일산동구 백석로86번길 12-3 (백석동),경기도 고양시 일산동구 백석동 1255번지 ,10446,37.6471879,126.7877048,일반세탁업,181201.052975445    ,460566.082209208    ,일반세탁업,3,1,1,1,0,0,0,0,0,N,0,,,,임대,0,,,1,0,N
고양시,20150409,명품세탁,,폐업,폐업,20200413,,,,031 9656678,38.00,"경기도 고양시 덕양구 도래울로 16, 106호 (도내동, LH원흥도래울마을6단지)",경기도 고양시 덕양구 도내동 1103번지 ,10551,37.6270055418,126.8689980228,일반세탁업,188340.255006744    ,458302.786872877    ,일반세탁업,1,0,1,1,,,0,0,0,N,0,,,,,0,0,0,0,0,N
고양시,20170406,명품세탁빨래방,,영업/정상,영업,,,,,02  371 2177,34.00,"경기도 고양시 덕양구 신원로2길 59, 1(일부)층 (신원동)",경기도 고양시 덕양구 신원동 644-1 1층(일부) ,10570,37.6607093764,126.8884063662,일반세탁업,190084.128287098    ,462042.359792595    ,일반세탁업,0,0,1,1,,,0,0,0,N,0,,,,,2,0,0,1,0,N
고양시,20080912,명품세탁소,,폐업,폐업,20150302,,,,031 911 1413,47.60,"경기도 고양시 일산서구 일산로636번길 51-20 (대화동,1층일부)",경기도 고양시 일산서구 대화동 2005-8번지 1층일부 ,10369,37.6843781,126.7590743,일반세탁업,178682.480995182    ,464698.679312114    ,일반세탁업,3,1,1,1,,,0,0,0,N,0,,,,임대,2,,,,,N
고양시,20100622,명품세탁소,,폐업,폐업,20180820,,,,031 913 1221,35.00,"경기도 고양시 일산동구 산두로 190, 1층 일부호 (정발산동)",경기도 고양시 일산동구 정발산동 1265-3번지 1층 일부호,10358,37.6741000,126.7829344,일반세탁업,180786.007691995    ,463555.250261818    ,일반세탁업,3,1,,,,,0,0,0,N,0,,,,임대,2,,,1,0,N
고양시,20140314,명품세탁소,,영업/정상,영업,,,,,031 968 8285,57.98,"경기도 고양시 덕양구 원당로125번길 56, 나동 101호 (주교동, 오익연립)",경기도 고양시 덕양구 주교동 559-1 오익연립 나동 101호,10298,37.6645400319,126.8367066024,일반세탁업,185524.353868267    ,462472.87644652     ,일반세탁업,1,1,1,1,0,0,0,0,0,N,0,,,,,2,,,1,0,N
고양시,19961226,명품세탁소,,폐업,폐업,20160111,,,,031 9155553,28.00,"경기도 고양시 일산동구 대산로31번길 37 (정발산동,1층일부)",경기도 고양시 일산동구 정발산동 694-9번지 1층일부 ,10362,37.6687094,126.7720127,일반세탁업,179820.353889359    ,462958.162678694    ,일반세탁업,0,0,0,0,0,0,0,0,0,N,0,,,,,0,,,1,0,N
고양시,20080328,명품운동화손세탁가방,,폐업,폐업,20140429,,,,031 9078284,32.56,"경기도 고양시 일산동구 호수로430번길 58-1 (백석동,1층일부)",경기도 고양시 일산동구 백석동 1426-11번지 1층일부 ,10424,37.6449336,126.7817967,운동화전문세탁업,180677.179304495    ,460318.5927679      ,운동화전문세탁업,0,0,0,0,0,0,0,0,0,N,0,,,,,2,,,0,0,N
고양시,20110711,명품프로세탁,,영업/정상,영업,,,,,031 923 7033,27.74,"경기도 고양시 일산서구 하이파크3로 61 (덕이동, 하이파크시티일산파밀리에4단지상가-1 203호)",경기도 고양시 일산서구 덕이동 1535 하이파크시티일산파밀리에4단지상가-1 203호 ,10235,37.6981694190,126.7510826832,일반세탁업,178156.35191600000  ,466607.36127500000  ,일반세탁업,2,0,2,,,,0,0,0,N,0,,,,,1,,,1,0,N
고양시,19990205,모던세탁소,,폐업,폐업,20060412,,,,031 9075883,54.09,경기도 고양시 일산동구 백석로86번길 12-3 번지 (백석동),경기도 고양시 일산동구 백석동 1255번지 번지 ,10446,37.6471879,126.7877048,일반세탁업,181201.052975445    ,460566.082209208    ,일반세탁업,0,0,0,,0,,0,0,0,N,0,,,,,,,,,,N
고양시,19960326,모범사,,폐업,폐업,20050801,,,,031 9669553,30.42,경기도 고양시 덕양구 호국로 803 (주교동),경기도 고양시 덕양구 주교동 620-6번지 ,10462,37.6577725,126.8367901,일반세탁업,185532.520439763    ,461732.383101752    ,일반세탁업,,,,,,,,,,N,,,,,,,,,,,N
고양시,20120427,목련,,영업/정상,영업,,,,,031 964 3708,198.00,"경기도 고양시 일산동구 공릉천로355번길 67, 1층 전체호 (지영동)",경기도 고양시 일산동구 지영동 97-2번지 1층전체 ,10256,37.7184021,126.8331162,일반세탁업,185210.925879879    ,468482.590875824    ,일반세탁업,1,0,1,1,,,0,0,0,N,0,,,,,2,,,0,0,N
고양시,19970218,무궁화세탁소,,폐업,폐업,20000823,,,,031 9072294,112.29,경기도 고양시 일산동구 장대길105번길 164 (장항동),경기도 고양시 일산동구 장항동 545-1번지 번지 ,10428,37.6411603,126.7597934,일반세탁업,178735.623039473    ,459902.895840039    ,일반세탁업,0,0,0,,0,,0,0,0,N,0,,,,,,,,,,N
고양시,20030918,무지개세탁,,폐업,폐업,20200915,,,,031 9074894,31.98,"경기도 고양시 일산동구 일산로330번길 53 (마두동,(1층 일부))",경기도 고양시 일산동구 마두동 829-1 (1층 일부) ,10407,37.6659526973,126.7868616770,일반세탁업,181126.919504881    ,462640.460940889    ,일반세탁업,3,1,1,0,0,0,0,0,0,N,0,,,,임대,0,,,1,0,N
고양시,19870612,무지개콤퓨터크리닝,,폐업,폐업,20070326,,,,,15.60,경기도 고양시 덕양구 지도로35번길 61 (토당동),경기도 고양시 덕양구 토당동 383-10번지 ,10510,37.6208005,126.8210711,일반세탁업,184138.938390989    ,457632.083349598    ,일반세탁업,,,,,,,,,,N,,,,,,,,,,,N
고양시,19890403,무지개크리닝,,영업/정상,영업,,,,,031 9626688,43.12,"경기도 고양시 덕양구 호국로790번길 78, 1층 103호 (성사동, 능보상가연립)",경기도 고양시 덕양구 성사동 706-1번지 능보상가연립 103호 ,10464,37.6546056,126.8399815,일반세탁업,185814.154511314    ,461380.891561972    ,일반세탁업,,,,,,,,,,N,,,,,,,,,,,N
고양시,19951104,문촌미미크리닝,,폐업,폐업,20050416,,,,031 9171331,27.38,,경기도 고양시 일산서구 주엽동 14번지 번지 문촌마을7단지주상가 106호 ,10378,37.6745698,126.7562386,일반세탁업,178430.303055346    ,463611.868784191    ,일반세탁업,0,0,0,,0,,0,0,0,N,0,,,,,,,,,,N
고양시,20080925,문촌컴퓨터세탁,,영업/정상,영업,,,,,031 919 4999,22.82,"경기도 고양시 일산서구 킨텍스로 340 (주엽동, 문촌마을7단지 분산상가동 101호일부)",경기도 고양시 일산서구 주엽동 14-1 문촌마을7단지 분산상가동 101호일부 ,10378,37.6740687902,126.7554526100,일반세탁업,178489.799853343    ,463693.463000948    ,일반세탁업,1,0,1,1,,,0,0,0,N,0,,,,임대,1,,,,,N
고양시,19970304,문촌컴퓨터세탁소,,폐업,폐업,20010521,,,,031 9194999,28.80,,경기도 고양시 일산서구 주엽동 14-1번지 번지 문촌마을7단지 분산상가 101호 ,,37.6752919,126.7569050,일반세탁업,178489.799853343    ,463693.463000948    ,일반세탁업,0,0,0,,0,,0,0,0,N,0,,,,,,,,,,N
고양시,20160729,물소 운동화세탁,,폐업,폐업,20200921,,,,,30.37,"경기도 고양시 일산동구 중앙로 1129 (장항동, 호수마을 중관 1055호)",경기도 고양시 일산동구 장항동 902 호수마을 중관 1055호 ,10422,37.6488012291,126.7795667623,운동화전문세탁업,180458.844874681    ,460748.278360947    ,운동화전문세탁업,0,0,1,1,,,0,0,0,N,0,,,,임대,2,1,0,1,0,N
고양시,20170925,"물소운동화,이불세탁전문점",,영업/정상,영업,,,,,0319648860,34.71,"경기도 고양시 덕양구 은빛로77번길 69-7, 1(일부)층 (화정동)",경기도 고양시 덕양구 화정동 883-16번지 1(일부)층 ,10478,37.6397428,126.8358445,운동화전문세탁업,185447.23531142     ,459730.501550601    ,운동화전문세탁업,1,0,1,1,0,0,0,0,0,N,0,,,,,1,0,0,1,0,N
고양시,19870612,미도세탁,,폐업,폐업,20150807,,,,031 9706260,16.50,경기도 고양시 덕양구 토당로104번길 22-13 (토당동),경기도 고양시 덕양구 토당동 292-14번지 ,10508,37.6238337,126.8190361,일반세탁업,183960.379966171    ,457967.07841114     ,일반세탁업,,,,,,,,,,N,,,,,,,,,,,N
고양시,19941123,미도세탁소,,폐업,폐업,19960420,,,,031 9020059,32.83,"경기도 고양시 일산동구 강송로 149 상가 213호 (마두동,강촌마을3단지아파트)",경기도 고양시 일산동구 마두동 787번지 번지 훼미리상가 213호 ,10415,37.6520993,126.7834299,일반세탁업,180824.823988101    ,461113.188540369    ,일반세탁업,0,0,0,,0,,0,0,0,N,0,,,,,,,,,,N
고양시,19960724,미도세탁소,,영업/정상,영업,,,,,031 9020059,39.15,"경기도 고양시 일산동구 강송로 149, 강촌마을 상가동 1층 105,106,114,115호 (마두동)",경기도 고양시 일산동구 마두동 787 강촌마을3단지 ,10415,37.6519865202,126.7846033058,일반세탁업,180824.823988101    ,461113.188540369    ,일반세탁업,0,0,0,0,0,0,0,0,0,N,0,,,,,0,,,1,0,N
고양시,19971215,미도파크리닝,,영업/정상,영업,,,,,031 9665501,52.50,,경기도 고양시 덕양구 화정동 870 은빛마을 종합상가동 비08호,,,,일반세탁업,185457.654190376    ,460001.971602972    ,일반세탁업,,,,,,,,,,N,,,,,,,,,,,N
고양시,20040226,미래세탁소,,폐업,폐업,20070501,,,,031 9781502,29.14,경기도 고양시 덕양구 지도로13번길 20-14 (토당동),경기도 고양시 덕양구 토당동 867번지 ,10510,37.6192188,126.8236801,일반세탁업,184367.78418023     ,457454.711802033    ,일반세탁업,1,,1,1,,,,,,N,6,,,,,,,,,,N
고양시,20080514,미림사,,영업/정상,영업,,,,,02   3813295,43.56,"경기도 고양시 덕양구 삼송로 209, 1(일부)층 (삼송동)",경기도 고양시 덕양구 삼송동 61-29 1(일부)층 ,10556,37.6540387019,126.8969975839,일반세탁업,190837.738512697    ,461299.549812135    ,일반세탁업,2,0,1,1,,,0,0,0,,0,,,,임대,2,,,,,N
고양시,20100618,미미세탁소,,폐업,폐업,20140304,,,,031 916 8999,33.00,"경기도 고양시 일산동구 일산로427번길 27, 1층 일부호 (정발산동)",경기도 고양시 일산동구 정발산동 1197-1번지 1층 일부호,10359,37.6717117,126.7777615,일반세탁업,180328.878247182    ,463289.435760137    ,일반세탁업,3,1,1,1,,,0,0,0,N,0,,,,임대,0,,,1,0,N
고양시,19960625,미스터크리닝,,폐업,폐업,20090209,,,,031 9725657,73.60,경기도 고양시 덕양구 행당로 41 (행신동),경기도 고양시 덕양구 행신동 649-2번지 ,10517,37.6192990,126.8290715,일반세탁업,184843.220289787    ,457463.777583811    ,일반세탁업,,,,,,,,,,N,,,,,,,,,,,N
고양시,19910529,미주,,폐업,폐업,20061109,,,,031 9763387,12.00,경기도 고양시 일산서구 탄중로471번길 15 (일산동),경기도 고양시 일산서구 일산동 587-63번지 번지 ,10341,37.6874077,126.7737347,일반세탁업,179977.943669126    ,465032.446876693    ,일반세탁업,0,0,0,,0,,0,0,0,N,0,,,,,,,,,,N
고양시,20041106,미주세탁소,,폐업,폐업,20130627,,,,031 9214667,21.42,"경기도 고양시 일산서구 일청로59번길 46 상가동 104호 (일산동,미주8차아파트)",경기도 고양시 일산서구 일산동 1998번지 미주8차아파트상가동104호 ,10347,37.6899067,126.7708246,일반세탁업,179721.385086687    ,465309.357426533    ,일반세탁업,2,1,1,1,,,,,,N,,,,,자가,,,,,,N
고양시,20200429,미통세탁,,영업/정상,영업,,,,,,115.50,"경기도 고양시 덕양구 대장길50번길 57-19, 1층 일부호 (대장동)",경기도 고양시 덕양구 대장동 206번지 1층일부호,10456,37.6392531078,126.8184904660,세탁업 기타,183909.965112759    ,459666.938990256    ,세탁업 기타,0,0,1,1,,,0,0,0,N,0,,,,,2,4,1,3,0,N
고양시,19870612,민아세탁소,,폐업,폐업,20130506,,,,9636605,19.78,경기도 고양시 덕양구 토당로 66-27 (토당동),경기도 고양시 덕양구 토당동 333번지 ,10508,37.6219682,126.8187575,일반세탁업,183934.282667401    ,457759.574586046    ,일반세탁업,,,,,,,,,,N,,,,,,,,,,,N
고양시,19910610,믿음,,폐업,폐업,20051109,,,,031 9765104,6.00,경기도 고양시 일산동구 약산길 8-7 (중산동),경기도 고양시 일산동구 중산동 25-97번지 번지 ,10319,37.6794870,126.7923727,일반세탁업,181621.115976403    ,464150.635331999    ,일반세탁업,0,0,0,,0,,0,0,0,N,0,,,,,,,,,,N
고양시,20201207,믿음기계상사,,영업/정상,영업,,,,,,96.00,"경기도 고양시 일산서구 덕이로 264-27, B동 (덕이동)",경기도 고양시 일산서구 덕이동 1097-7 B동 ,10227,37.7014649606,126.7365181399,빨래방업,176691.662101234    ,466580.420832092    ,빨래방업,0,0,0,0,0,0,0,0,0,N,0,,,,,3,0,0,0,0,N
고양시,20160607,믿음사,,폐업,폐업,20190527,,,,,99.00,"경기도 고양시 덕양구 고골길116번길 14-93, 1(일부)층 (관산동, 나동 )",경기도 고양시 덕양구 관산동 557번지 나동 1층일부 ,10265,37.7105742,126.8614744,일반세탁업,187722.036258182    ,467587.587176211    ,일반세탁업,0,0,0,0,0,0,0,0,0,N,0,,,,,2,0,0,1,0,N
고양시,20000721,믿음사,,폐업,폐업,20061205,,,,0231581680,42.32,경기도 고양시 덕양구 용현로53번길 16-3 1층 (행신동),경기도 고양시 덕양구 행신동 741-15번지 1층 ,10525,37.6177485,126.8347384,일반세탁업,185343.505          ,457289.36           ,일반세탁업,3,1,1,1,,,,,,N,,,,,임대,,,,,,N
고양시,19970104,믿음세탁,,폐업,폐업,20180220,,,,031 9678676,19.76,경기도 고양시 덕양구 화중로 220 (화정동),경기도 고양시 덕양구 화정동 851번지 달빛마을 2단지 214호 ,10473,37.6464651,126.8365660,일반세탁업,185511.318875767    ,460477.58356124     ,일반세탁업,0,0,0,0,0,0,0,0,0,N,0,,,,,0,,,0,0,N
고양시,19991119,믿음세탁소,,영업/정상,영업,,,,,031 9670607,61.95,"경기도 고양시 덕양구 고양대로1315번길 58-12, 102호 (주교동)",경기도 고양시 덕양구 주교동 604-14 102호,10460,37.6582506875,126.8306631150,일반세탁업,184989.2946076      ,461777.510922924    ,일반세탁업,,,,,,,,,,N,,,,,,,,,,,N
고양시,20031127,밀라트 프리미엄 세탁,,영업/정상,영업,,,,,031 907 9555,26.37,"경기도 고양시 일산동구 경의로 33, 101(일부)호 (백석동, 현대밀라트I B동)",경기도 고양시 일산동구 백석동 1316번지 외1필지 현대밀라트I B동 101호일부 ,10449,37.6390394484,126.7906061669,일반세탁업,181458.363468875    ,459676.026770026    ,일반세탁업,15,3,0,0,0,0,0,0,0,N,0,,,,임대,0,,,1,0,N
고양시,20040824,밀라트세탁,,영업/정상,영업,,,,,031 9045525,20.58,"경기도 고양시 일산동구 중앙로 1011 (백석동,현대밀라트II 105-2번지 일부)",경기도 고양시 일산동구 백석동 1303번지 현대밀라트II 105-2번지 일부 ,10449,37.6409663,126.7899548,일반세탁업,181397.949225606    ,459875.558884546    ,일반세탁업,10,3,1,1,0,0,0,0,0,N,0,,,,임대,0,,,1,0,N
고양시,20080602,밀레니엄 세탁소,,영업/정상,영업,,,,,031 9027988,40.74,"경기도 고양시 일산동구 호수로 340-11, 1(일부)층 (백석동, 밀레니엄리젠시)",경기도 고양시 일산동구 백석동 1329번지 밀레니엄리젠시 1층일부 ,10449,37.6381315,126.7867906,일반세탁업,181117.371850416    ,459560.502536101    ,일반세탁업,0,0,0,0,0,0,0,0,0,N,0,,,,,2,,,1,0,N
고양시,19960626,박해성 현대세탁소,,영업/정상,영업,,,,,031 9655688,26.11,"경기도 고양시 일산동구 숲속마을1로 85, 102호 (풍동, 숲속마을상가동)",경기도 고양시 일산동구 풍동 1267번지 숲속마을상가동 102호,10306,37.6689661,126.7988517,일반세탁업,182188.642696488    ,462980.943506561    ,일반세탁업,0,0,0,0,0,0,0,0,0,N,0,,,,,2,,,1,0,N
고양시,19920610,반도 크리닝,,폐업,폐업,20060821,,,,031 9762151,19.61,,"경기도 고양시 일산동구 풍동 369-4번지 ,38번지 ",,,,일반세탁업,,,일반세탁업,,,,,,,,,,N,,,,,,,,,,,N
고양시,20041203,배태랑세탁소,,폐업,폐업,20160120,,,,,57.00,경기도 고양시 덕양구 원당로125번길 56 (주교동),경기도 고양시 덕양구 주교동 559-1번지 ,10298,37.6644395,126.8366732,일반세탁업,,,일반세탁업,1,0,1,1,0,0,0,0,0,N,0,,,,임대,0,,,0,0,N
고양시,20081020,백광세탁소,,폐업,폐업,20171113,,,,031 911 1467,47.10,"경기도 고양시 일산서구 성저로50번길 2 (대화동,1층일부)",경기도 고양시 일산서구 대화동 2054-7번지 1층일부 ,10368,37.6841310,126.7529080,일반세탁업,178138.725267173    ,464672.274767692    ,일반세탁업,3,1,1,1,,,0,0,0,N,0,,,,임대,2,,,,,N
고양시,19940701,백광세탁소,,폐업,폐업,20151007,,,,031 9667987,21.98,"경기도 고양시 덕양구 고양대로1384번길 35 상가 208호 (성사동,신원당2단지아파트)",경기도 고양시 덕양구 성사동 723번지 시영상가 208호 ,10468,37.6523777,126.8382299,일반세탁업,185660.376053088    ,461133.329544062    ,일반세탁업,,,,,,,,,,N,,,,,,,,,,,N
고양시,20190304,백광세탁소,,영업/정상,영업,,,,,031 923 3677,31.54,"경기도 고양시 일산서구 가좌3로 47, 선진상가 1층 103호 (가좌동)",경기도 고양시 일산서구 가좌동 404번지 선진상가 ,10209,37.6882134,126.7176353,일반세탁업,175029.981962727    ,465136.426735326    ,일반세탁업,0,0,,,,,0,0,0,N,0,,,,,1,0,0,1,0,N
고양시,20030605,백광세탁소,,폐업,폐업,20110426,,,,031 9053831,27.33,경기도 고양시 일산동구 산두로 181 1층 일부 (정발산동),경기도 고양시 일산동구 정발산동 1259-2번지 1층일부 ,10358,37.6733794,126.7830159,일반세탁업,180776.384827492    ,463508.656373221    ,일반세탁업,3,1,1,1,0,0,0,0,0,N,0,,,,임대,0,,,1,0,N
고양시,20050604,백광세탁소,,폐업,폐업,20100707,,,,,49.50,,경기도 고양시 덕양구 지축동 674-22번지 외1필지 ,10583,37.6502978,126.9152210,일반세탁업,,,일반세탁업,3,,1,1,,,,,,N,,,,,임대,,,,,,N
고양시,19921029,백광세탁소,,영업/정상,영업,,,,,031 9010985,45.00,"경기도 고양시 일산동구 일산로 205-1, 상가동 305호 (마두동, 백마마을)",경기도 고양시 일산동구 마두동 739번지 백마마을 상가동 305호,10416,37.6539913,126.7882971,일반세탁업,181254.504102097    ,461319.724259726    ,일반세탁업,0,0,0,0,0,0,0,0,0,N,0,,,,,0,,,1,0,N
고양시,20070831,백광세탁소,,폐업,폐업,20190228,,,,031 923 3677,27.80,"경기도 고양시 일산서구 가좌3로 47 (가좌동,외1필지 선진상가 103호)",경기도 고양시 일산서구 가좌동 404번지 외1필지 선진상가 103호 ,10209,37.6882134,126.7176353,일반세탁업,175029.981962727    ,465136.426735326    ,일반세탁업,0,0,2,2,0,0,0,0,0,N,0,,,,임대,1,,,,,N
고양시,19921102,백마세탁소,,폐업,폐업,20201113,,,,031 9015642,23.00,경기도 고양시 일산동구 고풍로 65 (풍동),경기도 고양시 일산동구 풍동 545 ,10309,37.6643578615,126.7944394913,일반세탁업,181793.1178019      ,462461.439181143    ,일반세탁업,1,,1,1,,,,,,N,,,,,자가,,,,,,N
고양시,19960625,백마세탁소,,영업/정상,영업,,,,,031 9037971,35.28,"경기도 고양시 일산동구 경의로 329, 113호, 117호 (마두동, 백마마을상가동 )",경기도 고양시 일산동구 마두동 717번지 백마마을상가동 113호 117호 ,10417,37.6588798,126.7912069,일반세탁업,181512.513551098    ,461863.439025231    ,일반세탁업,0,0,0,0,0,0,0,0,0,N,0,,,,,0,,,1,0,N
고양시,19950316,백마세탁소,,폐업,폐업,20111024,,,,031 9116402,31.92,경기도 고양시 일산동구 무궁화로187번길 21 (정발산동),경기도 고양시 일산동구 정발산동 1224-3번지 번지 ,10358,37.6719881,126.7809910,일반세탁업,180612.553161072    ,463320.17919357     ,일반세탁업,0,0,0,0,0,0,0,0,0,N,0,,,,,0,,,1,0,N
고양시,19920305,백마컴퓨터세탁소,,폐업,폐업,20060824,,,,031 9721757,19.40,경기도 고양시 덕양구 지도로104번길 16 (토당동),경기도 고양시 덕양구 토당동 846번지 ,10511,37.6263019,126.8246487,일반세탁업,184456.840306082    ,458241.300573114    ,일반세탁업,,,,,,,,,,N,,,,,,,,,,,N
고양시,20191010,백마크리닝 경기고양지사,,영업/정상,영업,,,,,,126.00,"경기도 고양시 일산동구 장진천길 30-95, 2동 일부호 (설문동)",경기도 고양시 일산동구 설문동 148번지 2동 일부 ,10257,37.7109887074,126.8161786621,일반세탁업,183725.569137909    ,467640.339594529    ,일반세탁업,0,0,1,0,0,0,0,0,0,N,0,,,,,5,0,0,3,0,N
고양시,20200113,백마크리닝고양운동화지사,,폐업,폐업,20200212,,,,,131.00,"경기도 고양시 덕양구 서삼릉길 357, 1층 일부호 (원흥동)",경기도 고양시 덕양구 원흥동 663-9번지 1층일부호,10559,37.6529132727,126.8781398745,일반세탁업,189181.481349402    ,461186.025460254    ,일반세탁업,0,0,1,1,,,0,0,0,N,0,,,,,3,1,0,2,0,N
고양시,19971114,백마크리닝빨래방,,폐업,폐업,19990731,,,,031 9763675,28.38,경기도 고양시 일산서구 일청로 47 (일산동),경기도 고양시 일산서구 일산동 584-39번지 번지 ,10349,37.6880181,126.7725424,일반세탁업,179873.97386489     ,465101.56624927     ,일반세탁업,0,0,0,,0,,0,0,0,N,0,,,,,,,,,,N
고양시,20050901,백설사,,폐업,폐업,20140411,,,,02 3810667,31.32,"경기도 고양시 덕양구 삼송로 162 (삼송동,1층일부)",경기도 고양시 덕양구 삼송동 135-61번지 1층일부 ,10590,37.6527198,126.8919537,일반세탁업,190401.525555486    ,461162.412239213    ,일반세탁업,1,,1,1,,,,,,N,,,,,자가,,,,,,N
고양시,19970704,백성세탁,,영업/정상,영업,,,,,031 9683092,23.06,경기도 고양시 덕양구 은빛로29번길 15-22 (화정동),경기도 고양시 덕양구 화정동 923-19 ,10476,37.6390759111,126.8300417779,일반세탁업,184930.710993764    ,459649.983751992    ,일반세탁업,,,,,,,,,,N,,,,,,,,,,,N
고양시,19920902,백송세탁소,,폐업,폐업,20180720,,,,031 9010513,35.28,"경기도 고양시 일산동구 강촌로 118, 상가동 205호 (백석동, 백송마을)",경기도 고양시 일산동구 백석동 1190번지 백송마을 상가동 205호,10419,37.6508270,126.7872411,일반세탁업,181159.368585567    ,460970.034657716    ,일반세탁업,0,0,0,0,0,0,0,0,0,N,0,,,,,0,,,1,0,N
고양시,19870612,백양사,,폐업,폐업,20180314,,,,031 9752150,18.62,,경기도 고양시 일산서구 일산동 608번지 번지 ,10350,,,일반세탁업,,,일반세탁업,0,0,0,0,0,0,0,0,0,N,0,,,,,0,,,0,0,N
고양시,20090427,백양세탁,,폐업,폐업,20100609,,,,031 978 5560,26.84,경기도 고양시 덕양구 무원로36번길 15-1 1층 (행신동),경기도 고양시 덕양구 행신동 721-13번지 (1층) ,10524,37.6159442,126.8331002,일반세탁업,185199.400527324    ,457090.176892479    ,일반세탁업,3,1,1,1,,,0,0,0,N,0,,,,임대,2,,,1,0,N
고양시,19930302,백양세탁,,폐업,폐업,20030429,,,,031 9637627,19.80,경기도 고양시 덕양구 통일로 776-10 (관산동),경기도 고양시 덕양구 관산동 228-9번지 ,10286,37.6882159,126.8645100,일반세탁업,187983.510660343    ,465106.734878867    ,일반세탁업,,,,,,,,,,N,,,,,,,,,,,N
고양시,20051115,백양세탁,,폐업,폐업,20070820,,,,0319169 124,138.84,경기도 고양시 일산서구 덕산로 278-32 1층 (덕이동),경기도 고양시 일산서구 덕이동 1266-1번지 (1층) ,10212,37.6944026,126.7327935,일반세탁업,176368.336434474    ,465818.867678332    ,일반세탁업,1,,1,1,,,,,,N,,,,,임대,1,,,,,N
고양시,20051109,백양세탁,,폐업,폐업,20200413,,,,031 911 7632,41.44,"경기도 고양시 일산서구 후곡로 32, 203호 (일산동, 후곡마을4단지 상가동)",경기도 고양시 일산서구 일산동 1066번지 후곡마을4단지 상가동 203호,10374,37.6800468778,126.7644426096,일반세탁업,179278.778672832    ,464187.034822545    ,일반세탁업,2,1,2,2,,,,,,N,,,,,자가,1,,,,,N
고양시,19980414,백양세탁소,,영업/정상,영업,,,,,031 9743232,23.65,경기도 고양시 덕양구 행신로311번길 39 (행신동),경기도 고양시 덕양구 행신동 961-5 ,10492,37.6229395248,126.8440228711,일반세탁업,186161.923913943    ,457853.31646229     ,일반세탁업,,,,,,,,,,N,,,,,,,,,,,N
고양시,19920617,백양세탁소,,폐업,폐업,20091029,,,,031 9217158,30.03,"경기도 고양시 일산서구 일청로65번길 28 상가 101호 (일산동,미주7차아파트)",경기도 고양시 일산서구 일산동 1978번지 번지 미주7차상가 101호 ,10346,37.6899640,126.7724570,일반세탁업,179865.765896582    ,465317.045708359    ,일반세탁업,,,,,,,,,,N,,,,,,,,,,,N
고양시,19960120,백양세탁소,,폐업,폐업,20110506,,,,031 9030631,98.25,경기도 고양시 일산동구 일산로358번길 20 1층 (정발산동),경기도 고양시 일산동구 정발산동 1340-3번지 1층 ,10406,37.6674075,126.7838155,일반세탁업,180895.819303983    ,462826.116453354    ,일반세탁업,0,0,0,0,0,0,0,0,0,N,0,,,,,0,,,1,0,N
고양시,20020430,백양세탁소,,폐업,폐업,20140605,,,,031 9184255,48.50,"경기도 고양시 일산서구 강성로214번길 10 (대화동,번지)",경기도 고양시 일산서구 대화동 2173-13번지 번지 ,10377,37.6750685,126.7534598,일반세탁업,178187.173733653    ,463669.678310924    ,일반세탁업,0,0,0,,0,,0,0,0,N,0,,,,,,,,,,N
고양시,19970930,백양세탁소,,폐업,폐업,20160802,,,,031 9684826,35.00,,경기도 고양시 덕양구 화정동 868번지 ,10475,37.6415488,126.8323961,일반세탁업,185143.682444307    ,459931.097370585    ,일반세탁업,,,,,,,,,,N,,,,,,,,,,,N
고양시,20121106,백양세탁소,,영업/정상,영업,,,,,02   3810789,23.76,"경기도 고양시 덕양구 신원3로 20 (신원동, 신원마을고양삼송아이파크 상가동 102-A)",경기도 고양시 덕양구 신원동 113번지 신원마을고양삼송아이파크 상가동 102-A ,10567,37.6691018855,126.8851741160,일반세탁업,189762.896487       ,462882.229623       ,일반세탁업,1,0,1,1,,,0,0,0,N,0,,,,임대,1,,,1,0,N
고양시,19971029,백양컴퓨터세탁,,폐업,폐업,20131001,,,,031 9193582,44.25,경기도 고양시 일산동구 일산로463번길 23-2 (정발산동),경기도 고양시 일산동구 정발산동 1152번지 ,10359,37.6729316,126.7749354,일반세탁업,180079.324562872    ,463426.783694772    ,일반세탁업,0,0,0,0,0,0,0,0,0,N,0,,,,,0,,,1,0,N
고양시,19980110,백양컴퓨터크리닝,,영업/정상,영업,,,,,031 9620082,23.22,,경기도 고양시 덕양구 고양동 240-6번지 ,10275,37.7012353,126.9003066,일반세탁업,191144.788018867    ,466548.071295732    ,일반세탁업,,,,,,,,,,N,,,,,,,,,,,N
고양시,19910417,백조사,,폐업,폐업,20061121,,,,031 9647763,26.42,"경기도 고양시 덕양구 고양대로1407번길 69 가동 105호 (성사동,종건빌라)",경기도 고양시 덕양구 성사동 488-40번지 종건그린빌라 가동 105호,10465,37.6570408,126.8419027,일반세탁업,186002.716982625    ,461626.393150268    ,일반세탁업,,,,,,,,,,N,,,,,,,,,,,N
고양시,19970327,백조세탁,,영업/정상,영업,,,,,031 9686386,29.61,경기도 고양시 덕양구 은빛로29번길 31-18 (화정동),경기도 고양시 덕양구 화정동 916-16 ,10476,37.6397465278,126.8306818191,일반세탁업,184987.267199545    ,459722.033860528    ,일반세탁업,,,,,,,,,,N,,,,,,,,,,,N
고양시,20071115,백조세탁,,폐업,폐업,20140806,,,,031 912 5079,22.36,"경기도 고양시 일산서구 대화1로 19, 207호 (대화동, 대화마을1단지 상가동)",경기도 고양시 일산서구 대화동 1499번지 대화마을1단지 상가동 207호,10219,37.6695717,126.7286897,일반세탁업,175998.041053125    ,463065.12559271     ,일반세탁업,2,0,2,2,0,0,0,0,0,,0,,,,임대,2,,,,,N
고양시,19931011,백조세탁소,,영업/정상,영업,,,,,031 9743348,14.35,경기도 고양시 덕양구 지도로125번길 9-14 (토당동),경기도 고양시 덕양구 토당동 834-7 ,10507,37.6274941687,126.8222129440,일반세탁업,184236.356599217    ,458364.239994117    ,일반세탁업,,,,,,,,,,N,,,,,,,,,,,N
고양시,19921010,백조세탁소,,폐업,폐업,20190527,,,,031 9656482,25.42,경기도 고양시 덕양구 마상로57번길 12 (주교동),경기도 고양시 덕양구 주교동 307-4번지 ,10297,37.6624942,126.8308975,일반세탁업,184992.256259093    ,462263.68667427     ,일반세탁업,,,,,,,,,,N,,,,,,,,,,,N
고양시,19960312,백조세탁소,,영업/정상,영업,,,,,031 9162336,23.62,"경기도 고양시 일산서구 강선로 137, 115호 (일산동, 후곡마을상가동)",경기도 고양시 일산서구 일산동 1086 후곡마을상가동 115호,10375,37.6757554873,126.7686126957,일반세탁업,179426.853245756    ,463799.333582306    ,일반세탁업,0,0,0,0,0,0,0,0,0,N,0,,,,,1,,,1,0,N
고양시,20040731,베스트크리닝,,영업/정상,영업,,,,,031 9079096,31.62,"경기도 고양시 일산동구 강촌로12번길 15-10 (백석동,1층일부)",경기도 고양시 일산동구 백석동 1455번지 1층일부 ,10424,37.6452707,126.7790197,일반세탁업,180432.175          ,460356.04           ,일반세탁업,3,1,1,1,0,0,0,0,0,N,0,,,,임대,0,,,1,0,N
고양시,20100401,베스트크린,,폐업,폐업,20190603,,,,,39.79,"경기도 고양시 덕양구 지도로115번길 36 (토당동,외1필지 1층일부)",경기도 고양시 덕양구 토당동 836-8번지 외1필지 1층일부 ,10507,37.6269993,126.8211240,일반세탁업,184162.037113721    ,458323.120755767    ,일반세탁업,0,0,0,0,0,0,0,0,0,N,0,,,,,4,,,4,0,N
고양시,20051214,벽산세탁,,폐업,폐업,20151221,,,,031 9253989,44.22,"경기도 고양시 일산서구 가좌1로 8, 205호 (가좌동, 가좌마을5단지 상가동)",경기도 고양시 일산서구 가좌동 1087번지 가좌마을5단지 상가동 205호,10211,37.6909594,126.7205726,일반세탁업,175290.560384174    ,465441.156548809    ,일반세탁업,2,1,2,2,,,,,,N,,,,,임대,1,,,,,N
고양시,19930809,벽산세탁소,,영업/정상,영업,,,,,031 9025407,18.72,"경기도 고양시 일산동구 일산로 242 (마두동,백마마을상가동 107호)",경기도 고양시 일산동구 마두동 719 백마마을상가동 107호 ,10417,37.6580956132,126.7887621306,일반세탁업,181335.039873837    ,461761.853138848    ,일반세탁업,0,0,0,0,0,0,0,0,0,N,0,,,,,0,,,1,0,N
고양시,20030501,별빛세탁소,,영업/정상,영업,,,,,031 9730088,36.68,,경기도 고양시 덕양구 화정동 948번지 별빛마을 9단지분산상가 105호 ,10502,37.6301591,126.8253418,일반세탁업,184518.097306059    ,458669.863237957    ,일반세탁업,2,1,1,1,,,,,,N,,,,,,,,,,,N
고양시,19940221,보성세탁,,폐업,폐업,19970225,,,,031 9120697,24.00,"경기도 고양시 일산서구 강선로 32 상가동 204호 (주엽동,강선마을15단지아파트)",경기도 고양시 일산서구 주엽동 84번지 번지 강선마을상가동 204호 ,10365,37.6666290,126.7633826,일반세탁업,179059.294321069    ,462727.757185859    ,일반세탁업,0,0,0,,0,,0,0,0,N,0,,,,,,,,,,N
고양시,19970303,보성세탁소,,폐업,폐업,20210630,,,,031 9120697,24.48,"경기도 고양시 일산서구 강선로 32, 106호 (주엽동, 강선마을15단지 상가동)",경기도 고양시 일산서구 주엽동 84 강선마을15단지 상가동 106호,10365,37.6673839088,126.7630935853,일반세탁업,179059.294321069    ,462727.757185859    ,일반세탁업,,,,,,,,,,N,,,,,,,,,,,N
고양시,20060316,봉황크린,,폐업,폐업,20210713,,,,031 9671959,80.00,경기도 고양시 덕양구 마상로134번길 77,경기도 고양시 덕양구 주교동 613-10 ,10461,37.6568680318,126.8348022142,일반세탁업,,,일반세탁업,5,0,1,1,0,0,0,0,0,N,0,,,,임대,0,0,0,0,0,N
고양시,20060316,봉황크린,,영업/정상,영업,,,,,031 9671959,145.00,"경기도 고양시 일산동구 지영로196번길 177, 다동 1층 전체호 (지영동)",경기도 고양시 일산동구 지영동 43-2 ,10256,37.7128236875,126.8350737883,일반세탁업,185389.764382234    ,467819.421123636    ,일반세탁업,5,0,1,1,0,0,0,0,0,N,0,,,,임대,3,0,0,1,0,N
고양시,19930211,부부사,,폐업,폐업,20160504,,,,031 9749002,19.38,경기도 고양시 덕양구 지도로104번길 14-9 (토당동),경기도 고양시 덕양구 토당동 846-11번지 ,10511,37.6261668,126.8246830,일반세탁업,184459.383700314    ,458226.877737116    ,일반세탁업,,,,,,,,,,N,,,,,,,,,,,N
고양시,19960625,부부세탁소,,폐업,폐업,19980511,,,,031 9042553,41.09,,경기도 고양시 일산동구 장항동 883번지 번지 청구상가 201호 ,10413,37.6501845,126.7761267,일반세탁업,180178.123632085    ,460901.421408613    ,일반세탁업,0,0,0,,0,,0,0,0,N,0,,,,,,,,,,N
고양시,19980715,부부컴퓨터세탁소,,영업/정상,영업,,,,,031 9722325,27.06,경기도 고양시 덕양구 화신로 284,경기도 고양시 덕양구 화정동 952 별빛마을 8단지상가 102호 ,10501,37.6313414124,126.8298505573,일반세탁업,184795.728711399    ,458873.637378711    ,일반세탁업,,,,,,,,,,N,,,,,,,,,,,N
고양시,19950527,부영부부세탁소,,영업/정상,영업,,,,,031 9740475,15.30,"경기도 고양시 덕양구 화신로 45, 105(일부)호 (행신동, 무원마을 1단지상가동)",경기도 고양시 덕양구 행신동 773번지 무원마을 1단지상가동 105호(일부) ,10528,37.6172480,126.8375938,일반세탁업,185597.866567384    ,457234.81393876     ,일반세탁업,,,,,,,,,,N,,,,,,,,,,,N
고양시,19970116,부영세탁,,폐업,폐업,20140127,,,,031 9678954,23.50,,경기도 고양시 덕양구 화정동 851번지 달빛마을 부영상가 지하105호 ,10473,37.6464651,126.8365660,일반세탁업,185511.318875767    ,460477.58356124     ,일반세탁업,,,,,,,,,,N,,,,,,,,,,,N
고양시,19940217,부영세탁,,영업/정상,영업,,,,,031 9120240,39.50,"경기도 고양시 일산서구 주엽로 121, 201호 (주엽동, 문촌마을15단지 상가동)",경기도 고양시 일산서구 주엽동 135 문촌마을15단지 상가동 201호,10384,37.6700295523,126.7566722246,일반세탁업,178404.188123779    ,463157.411876409    ,일반세탁업,0,0,0,,0,,0,0,0,N,0,,,,,,,,,,N
고양시,19960403,부영세탁소,,폐업,폐업,20181130,,,,031 9727254,28.56,"경기도 고양시 덕양구 충경로 151 상가동 208호 (행신동,소만마을1단지아파트)",경기도 고양시 덕양구 행신동 796번지 소만마을 1단지상가동 208호 ,10532,37.6171949,126.8449222,일반세탁업,186244.489030269    ,457226.842401009    ,일반세탁업,,,,,,,,,,N,,,,,,,,,,,N
고양시,19960930,부영세탁소,,폐업,폐업,20020902,,,,031 9185669,17.78,,경기도 고양시 일산서구 탄현동 1484번지 번지 부영상가 1층102호 ,10243,37.6944908,126.7654019,일반세탁업,179245.340583729    ,465820.947161712    ,일반세탁업,0,0,0,,0,,0,0,0,N,0,,,,,,,,,,N
고양시,20040921,부영세탁소,,영업/정상,영업,,,,,031 978 1599,19.25,"경기도 고양시 덕양구 백양로 27 (화정동,옥빛마을 부영상가1층108호)",경기도 고양시 덕양구 화정동 1004번지 옥빛마을 부영상가1층108호 ,10503,37.6287458,126.8322328,일반세탁업,185125.38501156     ,458511.674749901    ,일반세탁업,2,0,1,1,0,0,0,0,0,N,0,,,,임대,0,,,0,0,N
고양시,19950826,부영세탁소,,영업/정상,영업,,,,,031 9711768,16.56,"경기도 고양시 덕양구 소만로 46, 1층 105호 (행신동, 소만마을 9단지상가동)",경기도 고양시 덕양구 행신동 793번지 소만마을 9단지상가동 1층 105호,10532,37.6173005,126.8430078,일반세탁업,186073.958117891    ,457237.964609855    ,일반세탁업,,,,,,,,,,N,,,,,,,,,,,N
고양시,19960523,부영세탁소,,영업/정상,영업,,,,,031 9152554,17.90,"경기도 고양시 일산서구 탄현로 60, 210호 (탄현동, 탄현마을7단지 상가동)",경기도 고양시 일산서구 탄현동 1480 탄현마을7단지 상가동 210호,10249,37.6971790920,126.7699449477,일반세탁업,179676.858876784    ,466138.735547204    ,일반세탁업,0,0,0,,0,,0,0,0,N,0,,,,,,,,,,N
고양시,19960625,부영세탁소,,영업/정상,영업,,,,,031 9675575,26.61,"경기도 고양시 덕양구 화정로 29, 상가2동 102호 (화정동, 은빛마을6단지 상가2동)",경기도 고양시 덕양구 화정동 936 ,10496,37.6353138230,126.8294181994,일반세탁업,184868.92002704     ,459396.626847271    ,일반세탁업,,,,,,,,,,,,,,,,,,,,,N
고양시,20020902,부영세탁소,,폐업,폐업,20090310,,,,031 9185669,18.00,"경기도 고양시 일산서구 일현로 92 상가동 106호 (탄현동,탄현마을3단지아파트)",경기도 고양시 일산서구 탄현동 1484번지 탄현마을 상가동 106호 ,10243,37.6944908,126.7654019,일반세탁업,179245.340583729    ,465820.947161712    ,일반세탁업,,,,,,,,,,N,,,,,,,,,,,N
고양시,20071123,부흥세탁소,,폐업,폐업,20140715,,,,031 9073711,25.84,경기도 고양시 일산동구 강송로125번길 29 (백석동),경기도 고양시 일산동구 백석동 1220-3번지 ,10420,37.6492184,126.7845942,일반세탁업,180925.499707158    ,460790.237276428    ,일반세탁업,0,0,0,0,0,0,0,0,0,N,0,,,,,2,,,1,0,N
고양시,20051028,브라운스톤세탁소,,영업/정상,영업,,,,,031 9308282,59.76,"경기도 고양시 일산동구 호수로 336 (백석동,브라운스톤일산 115,116호)","경기도 고양시 일산동구 백석동 1330번지 브라운스톤일산 115,116호 ",10449,37.6374395,126.7877330,일반세탁업,181199.730502486    ,459483.063667204    ,일반세탁업,15,3,1,1,0,0,0,0,0,N,0,,,,임대,0,,,1,0,N
고양시,20070727,블루밍 세탁,,폐업,폐업,20171025,,,,031 9214430,24.50,"경기도 고양시 일산서구 가좌2로 20, 110호 (가좌동, 가좌마을6단지 상가동)",경기도 고양시 일산서구 가좌동 1086번지 가좌마을6단지 상가동 110호,10211,37.6894332,126.7228799,일반세탁업,175492.126302662    ,465268.704684916    ,일반세탁업,3,1,2,2,0,0,0,0,0,N,0,,,,임대,2,,,1,,N
고양시,20051017,블루밍 세탁소,,폐업,폐업,20070419,,,,,44.20,"경기도 고양시 일산서구 가좌2로 20 상가동 112호 (가좌동,가좌마을6단지아파트)",경기도 고양시 일산서구 가좌동 1086번지 가좌마을 상가동 112호 ,10211,37.6894332,126.7228799,일반세탁업,175492.126302662    ,465268.704684916    ,일반세탁업,2,1,1,1,,,,,,N,,,,,임대,1,,,,,N
고양시,20101206,블루밍명품세탁,,영업/정상,영업,,,,,031 969 0471,40.20,"경기도 고양시 일산동구 위시티1로 7, 1층 107호 (식사동, 위시티블루밍5단지 상가2)",경기도 고양시 일산동구 식사동 1565번지 위시티블루밍5단지 상가2 107호,10324,37.6754293,126.8115976,일반세탁업,183267.59699300000  ,463969.54812300000  ,일반세탁업,3,0,2,2,,,0,0,0,N,0,,,,임대,3,,,1,0,N
고양시,19960618,비젼세탁소,,영업/정상,영업,,,,,031 9057827,26.68,"경기도 고양시 일산동구 산두로 161 (정발산동,1층일부)",경기도 고양시 일산동구 정발산동 1281번지 1층일부 ,10406,37.6716604,126.7840184,일반세탁업,180881.2            ,463282.95           ,일반세탁업,0,0,0,0,0,0,0,0,0,N,0,,,,,2,,,1,0,N
고양시,20060405,비트 운동화 빨래방,,영업/정상,영업,,,,,031 9768289,21.20,"경기도 고양시 일산서구 일중로 83-1 (일산동,(1층일부))",경기도 고양시 일산서구 일산동 587-40 (1층일부) ,10341,37.6870330708,126.7747852070,일반세탁업,180067.568500667    ,464983.187725108    ,일반세탁업,1,,1,1,,,,,,N,,,,,임대,1,,,,,N
고양시,20131111,비트운동화빨래방,,폐업,폐업,20140414,,,,031 9084144,22.50,"경기도 고양시 일산동구 중앙로 1129, 1046호 (장항동, 호수마을서관)",경기도 고양시 일산동구 장항동 902번지 호수마을서관 1046호,10422,37.6488301,126.7792923,운동화전문세탁업,180458.844874681    ,460748.278360947    ,운동화전문세탁업,27,1,1,1,,,0,0,0,N,0,,,,,1,,,0,0,N
고양시,20170907,빨래터,,영업/정상,영업,,,,,0319248200,38.50,"경기도 고양시 일산서구 대화2로 137, 108호 (대화동, 대화마을 상가동)",경기도 고양시 일산서구 대화동 2570번지 대화마을 상가동 108호,10217,37.6737693,126.7361895,일반세탁업,176662.193805855    ,463526.782829388    ,일반세탁업,3,0,1,1,0,0,0,0,0,N,0,,,,,1,0,0,1,0,N
고양시,20070208,빨래터,,폐업,폐업,20110216,,,,031 9248200,30.96,"경기도 고양시 일산서구 대화2로 137 상가 206호 (대화동,대화마을6단지아파트)",경기도 고양시 일산서구 대화동 2570번지 휴먼빌상가 206호 ,10217,37.6737693,126.7361895,일반세탁업,176662.193805855    ,463526.782829388    ,일반세탁업,3,,2,2,,,,,,N,,,,,임대,1,,,,,N
고양시,19970711,빨리셀프세탁,,폐업,폐업,20160125,,,,031 9706408,.00,,경기도 고양시 덕양구 토당동 132-1번지 ,10507,,,일반세탁업,,,일반세탁업,0,0,0,0,0,0,0,0,0,N,0,,,,,0,,,0,0,N
고양시,20110331,뽀샤시운동화손세탁,,폐업,폐업,20110907,,,,031 918 1107,35.26,경기도 고양시 일산동구 일산로441번길 66 1층 일부 (정발산동),경기도 고양시 일산동구 정발산동 1164-8번지 1층일부 ,10359,37.6706535,126.7756564,운동화전문세탁업,180143.223473262    ,463172.573365016    ,운동화전문세탁업,3,1,1,1,,,0,0,0,N,0,,,,,2,,,0,0,N
고양시,20110819,뽀송뽀송24 셀프빨래방,,폐업,폐업,20130916,,,,,24.96,"경기도 고양시 덕양구 충장로 118-54 104호 (행신동,부활교육센타)",경기도 고양시 덕양구 행신동 987번지 부활교육센타 104호 ,10518,37.6214710,126.8357948,빨래방업,185438.288043694    ,457703.125380154    ,빨래방업,0,0,1,1,,,0,0,0,N,0,,,,임대,0,,,0,0,N
고양시,20141016,뽀송뽀송24시셀프빨래방,,폐업,폐업,20191008,,,,,38.61,"경기도 고양시 일산동구 중산로 149, 1층 일부호 (중산동, 스카이빌딩)",경기도 고양시 일산동구 중산동 1657-5번지 스카이빌딩 1층 일부호 ,10338,37.6854030329,126.7807357358,빨래방업,180595.645367508    ,464796.223360681    ,빨래방업,0,0,,,,,0,0,0,N,0,,,,,3,0,0,3,0,N
고양시,20050712,산들세탁,,영업/정상,영업,,,,,031 9750282,37.62,"경기도 고양시 일산서구 고양대로 724-8, 102호 (일산동, 산들마을5단지 상가동)",경기도 고양시 일산서구 일산동 525-21 산들마을5단지 상가동 102호,10354,37.6825891769,126.7761893866,일반세탁업,180190.196895365    ,464489.480457048    ,일반세탁업,3,1,2,2,,,,,,N,,,,,임대,3,,,,,N
고양시,20060808,삼단지 세탁소,,영업/정상,영업,,,,,031 9231159,30.40,"경기도 고양시 일산서구 가좌1로 38, 104호 (가좌동, 가좌마을3단지 상가동)",경기도 고양시 일산서구 가좌동 1088 가좌마을3단지 상가동 104호,10210,37.6887360946,126.7196472470,일반세탁업,175125.168135978    ,465257.677068291    ,일반세탁업,1,1,1,1,0,0,0,0,0,N,0,,,,임대,0,,,0,0,N
고양시,20040428,삼보세탁소,,영업/정상,영업,,,,,031 9658648,27.60,,경기도 고양시 덕양구 성사동 726 신원당마을 삼보상가 1층 19호 ,10468,37.6539970107,126.8371518336,일반세탁업,185439.519310023    ,461265.376605749    ,일반세탁업,3,,1,1,,,,,,N,,,,,,,,,,,N
고양시,19910715,삼선,,폐업,폐업,20161020,,,,031 9756387,26.40,,경기도 고양시 일산서구 일산동 625번지 번지 ,10342,,,일반세탁업,,,일반세탁업,0,0,0,0,0,0,0,0,0,N,0,,,,,0,,,0,0,N
고양시,20100806,삼성레미안 세탁소,,폐업,폐업,20160825,,,,031 968 5355,25.65,"경기도 고양시 덕양구 호국로834번길 55-17 (성사동, 레미안 휴레스트 정문상가108호)",경기도 고양시 덕양구 성사동 860번지 레미안 휴레스트 정문상가 108호 ,10467,37.6593754,126.8426570,일반세탁업,186070.790695002    ,461919.855299157    ,일반세탁업,1,0,0,0,0,0,0,0,0,N,0,,,,임대,2,,,1,0,N
고양시,20031021,삼성메르헨세탁소,,영업/정상,영업,,,,,031 9088887,28.00,"경기도 고양시 일산동구 무궁화로 8-28 (장항동,(삼성메르헨하우스1층일부))",경기도 고양시 일산동구 장항동 752 (삼성메르헨하우스1층일부) ,10401,37.6601492727,126.7664643200,일반세탁업,179323.493409099    ,461999.535266359    ,일반세탁업,15,4,1,1,0,0,0,0,0,N,0,,,,임대,0,,,1,0,N
고양시,19950710,삼성세탁,,영업/정상,영업,,,,,031 9035010,25.20,"경기도 고양시 일산동구 일산로 241-1, 상가A동 106호 (마두동)",경기도 고양시 일산동구 마두동 755 백마마을 상가A동 106호,10416,37.6571499421,126.7873880300,일반세탁업,181102.428572596    ,461648.794542416    ,일반세탁업,0,0,0,0,0,0,0,0,0,N,0,,,,,0,,,1,0,N
고양시,19970919,삼성크리닝,,폐업,폐업,20041214,,,,031 9223463,79.31,경기도 고양시 일산서구 일산로635번길 8-1 (대화동),경기도 고양시 일산서구 대화동 2107-10번지 번지 ,10370,37.6812407,126.7580416,일반세탁업,178592.510498188    ,464351.57626849     ,일반세탁업,0,0,0,,0,,0,0,0,N,0,,,,,,,,,,N
고양시,20050121,삼송사세탁소,,폐업,폐업,20161128,,,,02 3817505,33.30,"경기도 고양시 덕양구 삼송로193번길 34, 1(일부)층 (삼송동)",경기도 고양시 덕양구 삼송동 57-63번지 1층(일부) ,10556,37.6545521,126.8955320,일반세탁업,190716.738461129    ,461367.871844127    ,일반세탁업,1,0,1,1,0,0,0,0,0,N,0,,,,임대,0,,,0,0,N
고양시,19950110,삼신세탁소,,영업/정상,영업,,,,,031 9704766,20.24,"경기도 고양시 덕양구 소만로 12 (행신동, 소만마을 상가동 1층 107호)",경기도 고양시 덕양구 행신동 788 소만마을 상가동 1층 107호 ,10531,37.6141857917,126.8420829353,일반세탁업,186031.579605914    ,456822.396116149    ,일반세탁업,,,,,,,,,,N,,,,,,,,,,,N
고양시,19920126,삼윤사,,영업/정상,영업,,,,,031 9708436,19.00,경기도 고양시 덕양구 지도로42번길 15 (토당동),경기도 고양시 덕양구 토당동 874-4 ,10515,37.6207890258,126.8254919880,일반세탁업,184525.81539107     ,457622.15491789     ,일반세탁업,0,0,0,0,0,0,0,0,0,N,0,,,,,0,,,0,0,N
고양시,19940720,삼익세탁,,영업/정상,영업,,,,,031 9128267,27.14,"경기도 고양시 일산서구 대산로 145, 207호 (주엽동, 문촌마을4단지 상가동)",경기도 고양시 일산서구 주엽동 29 문촌마을4단지 상가동 207호,10388,37.6752690655,126.7614280323,일반세탁업,178912.197303502    ,463564.019954545    ,일반세탁업,0,0,0,,0,,0,0,0,N,0,,,,,,,,,,N
고양시,19960523,삼익세탁소,,영업/정상,영업,,,,,031 9118793,18.30,"경기도 고양시 일산서구 현중로 29, B13호 (탄현동, 탄현마을2단지 상가동)",경기도 고양시 일산서구 탄현동 1487 탄현마을2단지 상가동 B13호,10243,37.6932624155,126.7676921564,일반세탁업,179394.550073108    ,465705.701321462    ,일반세탁업,,,,,,,,,,N,,,,,,,,,,,N
고양시,19950105,삼익세탁소,,영업/정상,영업,,,,,031 9114643,17.32,"경기도 고양시 일산서구 대산로 261, 지층105호 (대화동, 성저마을4단지 상가동)",경기도 고양시 일산서구 대화동 2213 성저마을4단지 상가동 지층105호,10376,37.6802535185,126.7500267152,일반세탁업,177795.02231035     ,464186.527939048    ,일반세탁업,0,0,0,,0,,0,0,0,N,0,,,,,,,,,,N
고양시,20030408,삼환세탁,,영업/정상,영업,,,,,031 9222212,21.60,"경기도 고양시 일산서구 현중로 15, 102호 (탄현동, 탄현마을13단지 상가동)",경기도 고양시 일산서구 탄현동 1584 탄현마을13단지 상가동 102호,10344,37.6920205733,126.7680106134,일반세탁업,179381.403752951    ,465511.674111775    ,일반세탁업,1,1,1,1,,,,,,N,,,,,,,,,,,N
고양시,19870624,상신세탁소,,폐업,폐업,20110518,,,,031 9728108,33.00,경기도 고양시 덕양구 토당로78번길 7-33 (토당동),경기도 고양시 덕양구 토당동 335-61번지 ,10508,37.6231670,126.8190378,일반세탁업,183959.878881995    ,457893.003907903    ,일반세탁업,,,,,,,,,,N,,,,,,,,,,,N
고양시,20110915,상연사,,영업/정상,영업,,,,,02  376 5240,97.50,경기도 고양시 덕양구 대덕로82번길 15 (현천동),경기도 고양시 덕양구 현천동 26 ,10540,37.5932958667,126.8724317915,일반세탁업,188664.326942799    ,454561.566685706    ,일반세탁업,2,0,1,1,0,0,0,0,0,N,0,,,,임대,2,,,1,0,N
고양시,19870612,새롬,,폐업,폐업,20180314,,,,031 9764014,20.00,"경기도 고양시 일산서구 원일로73번길 10 (일산동,번지)",경기도 고양시 일산서구 일산동 596-1번지 번지 ,10350,37.6865730,126.7707329,일반세탁업,179712.621823992    ,464942.064529109    ,일반세탁업,0,0,0,0,0,0,0,0,0,N,0,,,,,0,,,0,0,N
고양시,20051017,새롬세탁소,,영업/정상,영업,,,,,031 972 2956,40.04,"경기도 고양시 덕양구 토당로42번길 9 (토당동,외1필지(1층 104호))",경기도 고양시 덕양구 토당동 855-3번지 외1필지(1층 104호) ,10510,37.6198820,126.8213792,일반세탁업,184177.08984198     ,457541.273839286    ,일반세탁업,5,1,1,1,0,0,,,,N,,,,,임대,,,,,,N
고양시,20090226,새롬세탁소,,폐업,폐업,20150304,,,,031 9318818,63.54,"경기도 고양시 일산동구 백마로 195, B-B1225호 (장항동, 일산방송COMPLEX방송관련시설)",경기도 고양시 일산동구 장항동 869번지 일산방송COMPLEX방송관련시설 B-B1225 ,10403,37.6547150,126.7707981,일반세탁업,179708.826286267    ,461404.803949418    ,일반세탁업,15,4,,,1,1,0,0,0,N,0,,,,임대,2,,,1,,N
고양시,19941112,새롬세탁소,,폐업,폐업,20080131,,,,031 9730998,23.65,경기도 고양시 덕양구 토당로104번길 19-19 (토당동),경기도 고양시 덕양구 토당동 288-4번지 ,10508,37.6250217,126.8182403,일반세탁업,183889.046084437    ,458101.35780185     ,일반세탁업,,,,,,,,,,N,,,,,,,,,,,N
고양시,19920702,새서울세탁소,,영업/정상,영업,,,,,031 9621064,31.11,,경기도 고양시 덕양구 관산동 178-57 ,10285,37.6879784592,126.8669506290,일반세탁업,188249.615267621    ,465105.588198078    ,일반세탁업,,,,,,,,,,N,,,,,,,,,,,N
